"site.ID","sites.sitename","network","alt.names","super.site","city","state","country","lat","lon","coordinates.precision","masl","geography.notes","mat","min.temp","max.temp","map","climate.notes","soil.texture","sand","silt","clay","soil.classification","soil.notes","hydrology.notes","site.notes","geographic.area","continent","biogeog","Koeppen","FAO.ecozone","site.ID.v1","measurement.refs","site.ref","ref.notes","lacks.info.from.ori.pub","loaded.from","loaded.by","potential_duplicate_group","potential_duplicate_group_parsed","confirmed.unique","potential_duplicate_group_manual","duplicate.notes","optional","MAT","MAP","warmest","coldest"
1,"4 Rios",NA,NA,NA,"NAC","Heredia","Costa Rica",10.3888,-84.1327,"decimal degrees to 4 digits","248",NA,"24.2","NAC","NAC","3967",NA,"NAC","NAC","NAC","NAC","Inceptisol",NA,"NAC",NA,1,"North America","Neotropics","Am","Tropical rainforest","1301","Cifuentes-Jara_2008_abae",NA,NA,NA,"Bonner_2013_amgc",NA,1,"1","1","1",NA,TRUE,25.283332824707,3752,26.7000007629395,24.2999992370605
2,"Aakre",NA,NA,NA,"NAC","Valga","Estonia",58.03,26.016,"NAC","NAC",NA,"5.4","NAC","NAC","675",NA,"sandy loam","NAC","NAC","NAC","Haplic Umbrisol",NA,NA,NA,2,"Europe","Palearctic","Dfb","Temperate continental forest",NA,"Uri_2012_bpac",NA,NA,NA,NA,NA,0,"0",NA,"0",NA,TRUE,5.38333368301392,659,16.8999996185303,-5.59999990463257
3,"Aberfeldy/Griffins",NA,NA,NA,"NAC","Perth and Kinross","United Kingdom",56.6,-3.78,"NAC","340",NA,"7.6","NAC","NAC","1195.25",NA,"loam","NAC","NAC","NAC","NAC",NA,NA,NA,3,"Europe","Palearctic","Cfb","Boreal coniferous forest",NA,"CarboEurope-IP_2006_cd; Valentini_2000_ratm",NA,"CD Carbodata",1,"Luyssaert_2007_cbob","Maria",0,"0",NA,"0",NA,TRUE,6.23333311080933,1368,12.5,1.29999995231628
4,"Acahual 1",NA,NA,NA,"Hidalgotitlan","Veracruz","Mexico",17.29,-94.58,"NAC","150",NA,"25.775","NAC","NAC","3640",NA,"NAC","NAC","NAC","NAC","Oxisol; Alfisol","Soils are derived principally from sedimentary rocks of limestone, shale and sandstone, with Oxisols and Alfisols being the most comon soil types encountered.","NAC",NA,4,"North America","Neotropics","Aw","Tropical rainforest","336","Williams-Linera_1983_banc",NA,NA,NA,"Anderson_2006_toba",NA,0,"0",NA,"0",NA,TRUE,25.154167175293,3601,28.3999996185303,21.2999992370605
5,"Acahual 2",NA,NA,NA,"Hidalgotitlan","Veracruz","Mexico",17.29,-94.58,"NAC","150",NA,"25.775","NAC","NAC","3640",NA,"NAC","NAC","NAC","NAC","Oxisol; Alfisol","Soils are derived principally from sedimentary rocks of limestone, shale and sandstone, with Oxisols and Alfisols being the most comon soil types encountered.","NAC",NA,4,"North America","Neotropics","Aw","Tropical rainforest","337","Williams-Linera_1983_banc",NA,NA,NA,"Anderson_2006_toba",NA,0,"0",NA,"0",NA,TRUE,25.154167175293,3601,28.3999996185303,21.2999992370605
6,"Agrovila Grande Esperanca.BR-230",NA,NA,NA,"Altamira","Para","Brazil",-3.366667,-52.616667,"NAC","100",NA,"23.65","NAC","NAC","1697",NA,"NAC","NAC","NAC","NAC","ultisols, oxisols, and a few spots of alfisols",NA,"NAC",NA,5,"South America","Neotropics","Am","Tropical rainforest","70","Guimaraes_1993_ldce",NA,NA,NA,"Anderson_2006_toba",NA,0,"0",NA,"0",NA,TRUE,25.5874996185303,1863,26.5,24.8999996185303
7,"Agua Pudre plot E AGP-01",NA,NA,NA,"NAC","Amazonas","Colombia",-3.73,-70.4,"NAC","105",NA,"25.5","NAC","NAC","2723",NA,"clay loam","NAC","NAC","NAC","Oxisol","Endostagnic Plinthosol (Alumic, Hyperdystic)","NAC",NA,6,"South America","Neotropics","Af","Tropical rainforest","443","Aragao_2009_aabn; Malhi_2011_taoe","Aragao_2009_aabn; Jimenez_2009_frdf",NA,NA,NA,NA,0,"0",NA,"0",NA,TRUE,26.533332824707,2963,27.1000003814697,25.7999992370605
8,"Agua Pudre plot U AGP-02",NA,NA,NA,"NAC","Amazonas","Colombia",-3.72,-70.3,"NAC","110",NA,"25.5","NAC","NAC","2723",NA,"clay loam","NAC","NAC","NAC","Oxisol","Endostagnic Plinthosol (Alumic, Hyperdystic)","NAC",NA,6,"South America","Neotropics","Af","Tropical rainforest","444","Aragao_2009_aabn; Malhi_2011_taoe","Aragao_2009_aabn; Jimenez_2009_frdf",NA,NA,NA,NA,0,"0",NA,"0",NA,TRUE,26.6041660308838,2953,27.2000007629395,25.8999996185303
9,"Aguas Claras",NA,NA,NA,"NAC","Colon","Panama",9.333333,-79.833333,"NAC","NAC","in Soberania National Park.","NAC","NAC","NAC","2650","4 month long dry season from Dec-April","slightly clayey loam","NAC","NAC","NAC","NAC","Dark-yellowish-brown surface","NAC",NA,7,"North America","Neotropics","Am","Tropical rainforest","281","Kraenzel_2003_csoh",NA,NA,NA,NA,NA,4,"1","1","4",NA,TRUE,26.7041664123535,2223,27.7999992370605,25.8999996185303
10,"Agumbe",NA,NA,NA,"NAC","Karnataka","India",13.52,75.1,"NAC","575",NA,"22.2","NAC","NAC","7670","high map verified.","NAC","NAC","NAC","NAC","Oxisol",NA,"NAC",NA,8,"Asia","IndoMalay","Aw","Tropical rainforest","329","Clark_2013_ntfc; Olson_2013_nmna; Rai_1986_esof",NA,"Rai_1986",NA,NA,NA,0,"0",NA,"0",NA,TRUE,23.408332824707,6536,26.1000003814697,22
11,"Aheden",NA,NA,NA,"NAC","Vasterbotten","Sweden",64.21,19.5,"NAC","175",NA,"1","NAC","NAC","588",NA,"loam","NAC","NAC","NAC","NAC",NA,NA,NA,9,"Europe","Palearctic","Dfc","Boreal coniferous forest",NA,"Bhupinderpal-Singh_2003_tras; Hahn_2006_catf; Hogberg_2001_lfgs; Luyssaert_2007_cbob; Schulze_2000_tcan","Schulze_2000_tcan",NA,1,"Luyssaert_2007_cbob","Maria",0,"0",NA,"0",NA,TRUE,1.97916674613953,579,15,-10
12,"Aheden 2",NA,NA,NA,"NAC","Vasterbotten","Sweden",64.23,19.76,"NAC","175",NA,"1","NAC","NAC","600",NA,"loam","NAC","NAC","NAC","NAC",NA,NA,NA,9,"Europe","Palearctic","Dfc","Boreal coniferous forest",NA,"Hogberg_2001_lfgs; Singh_2003_tras",NA,"Bhupinderpal-Singh_2003",1,"Luyssaert_2007_cbob","Maria",0,"0",NA,"0",NA,TRUE,1.87499988079071,603,15,-10.1000003814697
13,"Ailao",NA,NA,NA,"NAC","Yunnan","China",24.5333,101.0017,"NAC","NAC",NA,"11.3","NAC","NAC","1840",NA,"NAC","NAC","NAC","NAC","NAC",NA,NA,NA,10,"Asia","IndoMalay","Cwb","Subtropical mountain system",NA,"Liu_2002_bana; Tan_2011_aosa",NA,"Liu_2014_htpa",NA,"Liu_2014_htpa","Maria",5,"1",NA,"5",NA,TRUE,14.0958337783813,983,18.6000003814697,7.90000009536743
14,"Akou",NA,NA,NA,"Akou","Hyogo","Japan",34.7349444,134.3743056,"NAC","10",NA,"15.43","NAC","NAC","962",NA,"NAC","NAC","NAC","NAC","NAC",NA,NA,NA,11,"Asia","Palearctic","Cfa","Subtropical humid forest",NA,"Kosugi_2005_tyoc",NA,NA,NA,"Yu_2014_hcdu","Maria",0,"0",NA,"0",NA,TRUE,NA,NA,NA,NA
15,"Alaska",NA,NA,NA,"NAC","Alaska","United States of America",64.75,-148.25,"NAC","NAC",NA,"-3.5","NAC","NAC","269",NA,"NAC","NAC","NAC","NAC","NAC",NA,NA,NA,12,"North America","Nearctic","Dfc","Boreal tundra woodland",NA,"Oechel_1986_trob",NA,"Keith_2009_rofb; Liu_2014_htpa",NA,"Keith_2009_rofb; Liu_2014_htpa","Maria",0,"0",NA,"0",NA,TRUE,-2.92499995231628,294,16,-22.2000007629395
16,"Alaska - interior",NA,NA,NA,"NAC","Alaska","United States of America",64,-147,"degree","NAC",NA,"NAC","NAC","NAC","NAC",NA,"NAC","NAC","NAC","NAC","NAC",NA,NA,NA,13,"North America","Nearctic","Dfc","Boreal mountain system",NA,"Ueyama_2006_cfot","Ueyama_2006_cfot",NA,1,"Baldocchi_2008_bott","Maria",0,"0",NA,"0",NA,TRUE,-4.5625,340,11.6000003814697,-18.2999992370605
17,"Alaskan coast",NA,NA,NA,"NAC","Alaska","United States of America",58.37,-134.72,"NAC","NAC",NA,"10","NAC","NAC","3550",NA,"NAC","NAC","NAC","NAC","NAC",NA,NA,NA,14,"North America","Nearctic","Dfc","Temperate mountain system",NA,"Leighty_2006_eomo",NA,"Keith_2009_rofb; Liu_2014_htpa",NA,"Keith_2009_rofb; Liu_2014_htpa","Maria",0,"0",NA,"0",NA,TRUE,NA,NA,NA,NA
18,"Alatskivi 1",NA,NA,NA,"NAC","Tartu","Estonia",58.55,27.083,"NAC","NAC",NA,"5.4","NAC","NAC","675",NA,"sandy loam","NAC","NAC","NAC","Haplic Umbrisol","Haplic Umbrisol",NA,NA,15,"Europe","Palearctic","Dfb","Temperate continental forest",NA,"Uri_2012_bpac",NA,NA,NA,NA,NA,0,"0",NA,"0",NA,TRUE,5.08750009536743,605,17.2000007629395,-6
19,"Alatskivi 2",NA,NA,NA,"NAC","Tartu","Estonia",58.617,27.03,"NAC","NAC",NA,"5.4","NAC","NAC","675",NA,"sandy loam","NAC","NAC","NAC","Gleyic Umbrisol","Gleyic Umbrisol",NA,"GROA site.id #2042",15,"Europe","Palearctic","Dfb","Temperate continental forest",NA,"Uri_2012_bpac; Varik_2015_cbif",NA,NA,NA,NA,NA,0,"0",NA,"0",NA,TRUE,5.01249980926514,608,17.2999992370605,-6.19999980926514
20,"Alava",NA,NA,NA,"Tutuila","Eastern District","American Samoa",-14.264369,-170.688202,"other (see geography.notes)","NAC","ori coords fell in ocean. New coords from gmaps","26.9","NAC","NAC","3207",NA,"clay","NAC","NAC","NAC","Mollisol","Lithic Hapludoll-Rock outcrop association","NAC",NA,16,"Oceania","Oceania","Af","Tropical rainforest","12","Webb_1999_daso",NA,NA,NA,NA,NA,7,"1","1","7",NA,TRUE,25.1499996185303,3611,25.7999992370605,24.2999992370605
21,"Alberga",NA,NA,NA,"NAC","Para","Suriname",5.341,-55.764,"NAC","NAC",NA,"NAC","NAC","NAC","2156",NA,"NAC","NAC","NAC","NAC","NAC",NA,"NAC",NA,17,"South America","Neotropics","Af","Tropical moist forest","1367","Poorter_2015_decs",NA,NA,NA,NA,NA,0,"0",NA,"0",NA,TRUE,26.7416667938232,2202,27.7999992370605,25.8999996185303
22,"Alberta",NA,NA,NA,"NAC","Alberta","Canada",54.25,-117,"degree","NAC",NA,"2.6","NAC","NAC","500",NA,"NAC","NAC","NAC","NAC","NAC",NA,NA,NA,18,"North America","Nearctic","Dfc","Boreal coniferous forest",NA,"Banfield_2002_virs",NA,"Keith_2009_rofb; Liu_2014_htpa",NA,"Keith_2009_rofb; Liu_2014_htpa","Maria",0,"0",NA,"0",NA,TRUE,2.47083330154419,571,14.5,-11
23,"Alberta AB10",NA,NA,NA,"NAC","Alberta","Canada",50.27,-114.59,"NAC","1903",NA,"0.8","NAC","NAC","626","MAT and MAP from Liu2014","NAC","NAC","NAC","NAC","NAC",NA,NA,NA,19,"North America","Nearctic","Dfc","Temperate mountain system",NA,"Ma_2012_rdri",NA,"Liu_2014_htpa",NA,"Liu_2014_htpa","Maria",0,"0",NA,"0",NA,TRUE,0.89166671037674,643,12,-10.6000003814697
24,"Alberta AB11",NA,NA,NA,"NAC","Alberta","Canada",50.26,-114.6,"NAC","2010",NA,"0.2","NAC","NAC","635","MAT and MAP from Liu2014","NAC","NAC","NAC","NAC","NAC",NA,NA,NA,19,"North America","Nearctic","Dfc","Temperate mountain system",NA,"Ma_2012_rdri",NA,"Liu_2014_htpa",NA,"Liu_2014_htpa","Maria",0,"0",NA,"0",NA,TRUE,0.933333396911621,650,12.1000003814697,-10.6000003814697
25,"Alberta AB12",NA,NA,NA,"NAC","Alberta","Canada",50.25,-114.6,"NAC","2010",NA,"0.2","NAC","NAC","636","MAT and MAP from Liu2014","NAC","NAC","NAC","NAC","NAC",NA,NA,NA,19,"North America","Nearctic","Dfc","Temperate mountain system",NA,"Ma_2012_rdri",NA,"Liu_2014_htpa",NA,"Liu_2014_htpa","Maria",0,"0",NA,"0",NA,TRUE,0.704166650772095,658,11.8000001907349,-10.6999998092651
26,"Alberta AB13",NA,NA,NA,"NAC","Alberta","Canada",50.22,-114.59,"NAC","2010",NA,"-0.1","NAC","NAC","646","MAT and MAP from Liu2014","NAC","NAC","NAC","NAC","NAC",NA,NA,NA,19,"North America","Nearctic","Dfc","Temperate mountain system",NA,"Ma_2012_rdri",NA,"Liu_2014_htpa",NA,"Liu_2014_htpa","Maria",0,"0",NA,"0",NA,TRUE,0.191666603088379,684,11.1999998092651,-10.8999996185303
27,"Alberta AB14",NA,NA,NA,"NAC","Alberta","Canada",50.25,-114.59,"NAC","2010",NA,"0.2","NAC","NAC","638","MAT and MAP from Liu2014","NAC","NAC","NAC","NAC","NAC",NA,NA,NA,19,"North America","Nearctic","Dfc","Temperate mountain system",NA,"Ma_2012_rdri",NA,"Liu_2014_htpa",NA,"Liu_2014_htpa","Maria",0,"0",NA,"0",NA,TRUE,0.562500059604645,662,11.6999998092651,-10.6999998092651
28,"Alberta AB15",NA,NA,NA,"NAC","Alberta","Canada",50.29,-114.57,"NAC","1903",NA,"0.8","NAC","NAC","622","MAT and MAP from Liu2014","NAC","NAC","NAC","NAC","NAC",NA,NA,NA,19,"North America","Nearctic","Dfc","Temperate mountain system",NA,"Ma_2012_rdri",NA,"Liu_2014_htpa",NA,"Liu_2014_htpa","Maria",0,"0",NA,"0",NA,TRUE,1.125,645,12.1999998092651,-10.3999996185303
29,"Alberta AB16",NA,NA,NA,"NAC","Alberta","Canada",51.45,-115.05,"NAC","1532",NA,"0.4","NAC","NAC","555","MAT and MAP from Liu2014","NAC","NAC","NAC","NAC","NAC",NA,NA,NA,20,"North America","Nearctic","Dfc","Boreal coniferous forest",NA,"Ma_2012_rdri",NA,"Liu_2014_htpa",NA,"Liu_2014_htpa","Maria",0,"0",NA,"0",NA,TRUE,1.69999992847443,550,12.3999996185303,-9.39999961853027
30,"Alberta AB17",NA,NA,NA,"NAC","Alberta","Canada",52.4,-115.67,"NAC","1501",NA,"0.8","NAC","NAC","569","MAT and MAP from Liu2014","NAC","NAC","NAC","NAC","NAC",NA,NA,NA,21,"North America","Nearctic","Dfc","Boreal coniferous forest",NA,"Ma_2012_rdri",NA,"Liu_2014_htpa",NA,"Liu_2014_htpa","Maria",0,"0",NA,"0",NA,TRUE,1.85416674613953,611,13.3000001907349,-11.1000003814697
31,"Alberta AB18",NA,NA,NA,"NAC","Alberta","Canada",54.51,-117.62,"NAC","844",NA,"2.2","NAC","NAC","597","MAT and MAP from Liu2014","NAC","NAC","NAC","NAC","NAC",NA,NA,NA,22,"North America","Nearctic","Dfc","Boreal coniferous forest",NA,"Ma_2012_rdri",NA,"Liu_2014_htpa",NA,"Liu_2014_htpa","Maria",0,"0",NA,"0",NA,TRUE,2.75,592,14.8000001907349,-10.5
32,"Alberta AB19",NA,NA,NA,"NAC","Alberta","Canada",56.79,-118.59,"NAC","845",NA,"-0.6","NAC","NAC","456","MAT and MAP from Liu2014","NAC","NAC","NAC","NAC","NAC",NA,NA,NA,23,"North America","Nearctic","Dfc","Boreal coniferous forest",NA,"Ma_2012_rdri",NA,"Liu_2014_htpa",NA,"Liu_2014_htpa","Maria",0,"0",NA,"0",NA,TRUE,-0.0333331748843193,459,13.8000001907349,-15.3999996185303
33,"Alberta AB20",NA,NA,NA,"NAC","Alberta","Canada",56.55,-119.31,"NAC","815",NA,"-0.1","NAC","NAC","439","MAT and MAP from Liu2014","NAC","NAC","NAC","NAC","NAC",NA,NA,NA,24,"North America","Nearctic","Dfc","Boreal coniferous forest",NA,"Ma_2012_rdri",NA,"Liu_2014_htpa",NA,"Liu_2014_htpa","Maria",0,"0",NA,"0",NA,TRUE,0.504166662693024,429,14.8999996185303,-16.6000003814697
34,"Alberta AB21",NA,NA,NA,"NAC","Alberta","Canada",57.13,-118.33,"NAC","747",NA,"-0.9","NAC","NAC","450","MAT and MAP from Liu2014","NAC","NAC","NAC","NAC","NAC",NA,NA,NA,25,"North America","Nearctic","Dfc","Boreal coniferous forest",NA,"Ma_2012_rdri",NA,"Liu_2014_htpa",NA,"Liu_2014_htpa","Maria",0,"0",NA,"0",NA,TRUE,-0.120833367109299,464,14.1000003814697,-16.2000007629395
35,"Alberta AB22",NA,NA,NA,"NAC","Alberta","Canada",55.51,-114.25,"NAC","746",NA,"-0.9","NAC","NAC","524","MAT and MAP from Liu2014","NAC","NAC","NAC","NAC","NAC",NA,NA,NA,26,"North America","Nearctic","Dfc","Boreal coniferous forest",NA,"Ma_2012_rdri",NA,"Liu_2014_htpa",NA,"Liu_2014_htpa","Maria",0,"0",NA,"0",NA,TRUE,0.591666638851166,526,14.3999996185303,-16
36,"Alberta AB23",NA,NA,NA,"NAC","Alberta","Canada",50.14,-114.51,"NAC","1882",NA,"-0.7","NAC","NAC","652","MAT and MAP from Liu2014","NAC","NAC","NAC","NAC","NAC",NA,NA,NA,19,"North America","Nearctic","Dfc","Temperate mountain system",NA,"Ma_2012_rdri",NA,"Liu_2014_htpa",NA,"Liu_2014_htpa","Maria",0,"0",NA,"0",NA,TRUE,-0.208333343267441,677,10.6999998092651,-10.8999996185303
37,"Alberta AB24",NA,NA,NA,"NAC","Alberta","Canada",50.15,-114.5,"NAC","1882",NA,"-0.5","NAC","NAC","646","MAT and MAP from Liu2014","NAC","NAC","NAC","NAC","NAC",NA,NA,NA,19,"North America","Nearctic","Dfc","Temperate mountain system",NA,"Ma_2012_rdri",NA,"Liu_2014_htpa",NA,"Liu_2014_htpa","Maria",0,"0",NA,"0",NA,TRUE,0.287500083446503,656,11.1999998092651,-10.6000003814697
38,"Alberta AB25",NA,NA,NA,"NAC","Alberta","Canada",50.16,-114.51,"NAC","1882",NA,"-1.2","NAC","NAC","651","MAT and MAP from Liu2014","NAC","NAC","NAC","NAC","NAC",NA,NA,NA,19,"North America","Nearctic","Dfc","Temperate mountain system",NA,"Ma_2012_rdri",NA,"Liu_2014_htpa",NA,"Liu_2014_htpa","Maria",0,"0",NA,"0",NA,TRUE,-0.537500023841858,694,10.3000001907349,-10.8999996185303
39,"Alberta AB26",NA,NA,NA,"NAC","Alberta","Canada",50.16,-114.5,"NAC","1882",NA,"-1","NAC","NAC","649","MAT and MAP from Liu2014","NAC","NAC","NAC","NAC","NAC",NA,NA,NA,19,"North America","Nearctic","Dfc","Temperate mountain system",NA,"Ma_2012_rdri",NA,"Liu_2014_htpa",NA,"Liu_2014_htpa","Maria",0,"0",NA,"0",NA,TRUE,-0.208333373069763,671,10.6000003814697,-10.8000001907349
40,"Alberta AB27",NA,NA,NA,"NAC","Alberta","Canada",50.2,-114.55,"NAC","2448",NA,"-0.6","NAC","NAC","649","MAT and MAP from Liu2014","NAC","NAC","NAC","NAC","NAC",NA,NA,NA,19,"North America","Nearctic","Dfc","Temperate mountain system",NA,"Ma_2012_rdri",NA,"Liu_2014_htpa",NA,"Liu_2014_htpa","Maria",0,"0",NA,"0",NA,TRUE,-0.479166626930237,702,10.3999996185303,-11.1000003814697
41,"Alberta AB28",NA,NA,NA,"NAC","Alberta","Canada",50.19,-114.55,"NAC","2448",NA,"-0.9","NAC","NAC","652","MAT and MAP from Liu2014","NAC","NAC","NAC","NAC","NAC",NA,NA,NA,19,"North America","Nearctic","Dfc","Temperate mountain system",NA,"Ma_2012_rdri",NA,"Liu_2014_htpa",NA,"Liu_2014_htpa","Maria",0,"0",NA,"0",NA,TRUE,-0.341666668653488,684,10.6000003814697,-11.1000003814697
42,"Alberta AB29",NA,NA,NA,"NAC","Alberta","Canada",53.03,-115.25,"NAC","929",NA,"1.8","NAC","NAC","543","MAT and MAP from Liu2014","NAC","NAC","NAC","NAC","NAC",NA,NA,NA,27,"North America","Nearctic","Dfc","Boreal coniferous forest",NA,"Ma_2012_rdri",NA,"Liu_2014_htpa",NA,"Liu_2014_htpa","Maria",0,"0",NA,"0",NA,TRUE,2.54583334922791,591,14.8999996185303,-12.8000001907349
43,"Alberta AB30",NA,NA,NA,"NAC","Alberta","Canada",53.28,-115.45,"NAC","920",NA,"1.6","NAC","NAC","559","MAT and MAP from Liu2014","NAC","NAC","NAC","NAC","NAC",NA,NA,NA,28,"North America","Nearctic","Dfc","Boreal coniferous forest",NA,"Ma_2012_rdri",NA,"Liu_2014_htpa",NA,"Liu_2014_htpa","Maria",0,"0",NA,"0",NA,TRUE,2.07083320617676,596,14.5,-13.6000003814697
44,"Alberta AB31",NA,NA,NA,"NAC","Alberta","Canada",55.14,-114.82,"NAC","784",NA,"-1.1","NAC","NAC","551","MAT and MAP from Liu2014","NAC","NAC","NAC","NAC","NAC",NA,NA,NA,29,"North America","Nearctic","Dfc","Boreal coniferous forest",NA,"Ma_2012_rdri",NA,"Liu_2014_htpa",NA,"Liu_2014_htpa","Maria",0,"0",NA,"0",NA,TRUE,0.629166603088379,568,13.6000003814697,-14.3999996185303
45,"Alberta AB5",NA,NA,NA,"NAC","Alberta","Canada",54.17,-116.77,"NAC","881",NA,"2.6","NAC","NAC","579","MAT and MAP from Liu2014","NAC","NAC","NAC","NAC","NAC",NA,NA,NA,18,"North America","Nearctic","Dfc","Boreal coniferous forest",NA,"Ma_2012_rdri",NA,"Liu_2014_htpa",NA,"Liu_2014_htpa","Maria",0,"0",NA,"0",NA,TRUE,2.62916660308838,573,14.8000001907349,-11.1000003814697
46,"Alberta AB6",NA,NA,NA,"NAC","Alberta","Canada",55.33,-111.84,"NAC","661",NA,"0.2","NAC","NAC","475","MAT and MAP from Liu2014","NAC","NAC","NAC","NAC","NAC",NA,NA,NA,30,"North America","Nearctic","Dfc","Boreal coniferous forest",NA,"Ma_2012_rdri",NA,"Liu_2014_htpa",NA,"Liu_2014_htpa","Maria",0,"0",NA,"0",NA,TRUE,0.254166692495346,505,15.6000003814697,-19.5
47,"Alberta AB7",NA,NA,NA,"NAC","Alberta","Canada",49.38,-114.39,"NAC","1490",NA,"2.5","NAC","NAC","669","MAT and MAP from Liu2014","NAC","NAC","NAC","NAC","NAC",NA,NA,NA,31,"North America","Nearctic","Dfc","Temperate mountain system",NA,"Ma_2012_rdri",NA,"Liu_2014_htpa",NA,"Liu_2014_htpa","Maria",0,"0",NA,"0",NA,TRUE,3.13750004768372,686,14.1000003814697,-7.90000009536743
48,"Alberta AB8",NA,NA,NA,"NAC","Alberta","Canada",49.34,-114.15,"NAC","1435",NA,"1.5","NAC","NAC","648","MAT and MAP from Liu2014","NAC","NAC","NAC","NAC","NAC",NA,NA,NA,31,"North America","Nearctic","Dfc","Temperate mountain system",NA,"Ma_2012_rdri",NA,"Liu_2014_htpa",NA,"Liu_2014_htpa","Maria",0,"0",NA,"0",NA,TRUE,2.67499995231628,731,13.5,-7.59999990463257
49,"Alberta AB9",NA,NA,NA,"NAC","Alberta","Canada",50.18,-114.47,"NAC","1882",NA,"0","NAC","NAC","631","MAT and MAP from Liu2014","NAC","NAC","NAC","NAC","NAC",NA,NA,NA,19,"North America","Nearctic","Dfc","Temperate mountain system",NA,"Ma_2012_rdri",NA,"Liu_2014_htpa",NA,"Liu_2014_htpa","Maria",0,"0",NA,"0",NA,TRUE,0.383333384990692,655,11.3999996185303,-10.6000003814697
50,"Aleman",NA,NA,NA,"NAC","Alajuela","Costa Rica",10.3019,-84.7408,"decimal degrees to 4 digits","962",NA,"21.6","NAC","NAC","5800",NA,"NAC","NAC","NAC","NAC","Andisol",NA,"NAC",NA,32,"North America","Neotropics","Aw","Tropical rainforest","1306","Cifuentes-Jara_2008_abae",NA,NA,NA,"Bonner_2013_amgc",NA,0,"0",NA,"0",NA,TRUE,21.0416660308838,3413,22.2999992370605,20.1000003814697
51,"Aleza Lake",NA,NA,NA,"NAC","British Columbia","Canada",54.05,-122.05,"NAC","NI",NA,"3","NAC","NAC","900",NA,"sandy loam","NAC","NAC","NAC","NAC",NA,NA,NA,33,"North America","Nearctic","Dfc","Temperate mountain system",NA,"Fredeen_2007_wdrs","Fredeen_2007_wdrs",NA,1,"Luyssaert_2007_cbob","Maria",0,"0",NA,"0",NA,TRUE,4.12083339691162,873,15.5,-8.60000038146973
52,"Alkkia Scots pine plantation",NA,NA,NA,"NAC","Satakunta","Finland",62.1764333,22.7836833,"NAC","159",NA,"NAC","NAC","NAC","NAC",NA,"NAC","NAC","NAC","NAC","NAC",NA,NA,NA,34,"Europe","Palearctic","Dfc","Boreal coniferous forest",NA,"Lohila_2007_cdea","Lohila_2007_cdea",NA,NA,"Baldocchi_2008_bott","Maria",11,"1",NA,"11",NA,TRUE,3.10000014305115,632,15.3000001907349,-7.90000009536743
53,"Allpahuayo A",NA,NA,NA,"NAC","Loreto","Peru",-4,-73.4,"degree","NAC",NA,"NAC","NAC","NAC","NAC",NA,"NAC","NAC","NAC","NAC","NAC",NA,"NAC",NA,35,"South America","Neotropics","Af","Tropical rainforest","1421","Chao_2009_atdq",NA,NA,NA,"Chao_2009_atdq",NA,0,"0",NA,"0",NA,TRUE,26.2666664123535,2626,26.7000007629395,25.2999992370605
54,"Allpahuayo A ALP11/ALP12",NA,NA,NA,"NAC","Loreto","Peru",-3.95,-73.4333,"NAC","120",NA,"25.2","NAC","NAC","2689",NA,"sandy loam","NAC","NAC","NAC","Alisol/Gleysol","This site is located on an infertile, sandy upper soil layer; however, there is evidence that tree roots may have access to a deeper, more fertile soil and thus contribute to the high productivity observed (P.V.A. Fine, personal communications).","NAC",NA,35,"South America","Neotropics","Af","Tropical rainforest","459","del Aguila-Pasquel_2014_tsco; Malhi_2017_tvop","del Aguila-Pasquel_2014_tsco",NA,NA,"Malhi_2015_tlbp",NA,13,"1","NAC","13","needs review",TRUE,26.1208343505859,2660,26.6000003814697,25.2000007629395
55,"Allpahuayo A clay-rich soils",NA,NA,NA,"NAC","Loreto","Peru",-3.95,-73.43,"NAC","120",NA,"26.3","NAC","NAC","2762","Dry season length 0.77 mths","clay-rich","NAC","NAC","NAC","entisol (typic endoaquent)",NA,"terra firma",NA,35,"South America","Neotropics","Af","Tropical rainforest","58","Baker_2004_ibia; Malhi_2004_tacw",NA,NA,NA,NA,NA,13,"1","NAC","13","needs review",TRUE,26.1208343505859,2660,26.6000003814697,25.2000007629395
56,"Allpahuayo A sandy soils",NA,NA,NA,"NAC","Loreto","Peru",-3.95,-73.43,"NAC","120",NA,"26.3","NAC","NAC","2762","Dry season length 0.77 mths","sandy","NAC","NAC","NAC","ultisol (typic paleudult)",NA,"terra firma",NA,35,"South America","Neotropics","Af","Tropical rainforest","59","Baker_2004_ibia; Malhi_2004_tacw",NA,NA,NA,NA,NA,13,"1","NAC","13","needs review",TRUE,26.1208343505859,2660,26.6000003814697,25.2000007629395
57,"Allpahuayo B",NA,NA,NA,"NAC","Loreto","Peru",-4,-73.4,"degree","NAC",NA,"NAC","NAC","NAC","NAC",NA,"NAC","NAC","NAC","NAC","NAC",NA,"NAC",NA,35,"South America","Neotropics","Af","Tropical rainforest","1422","Chao_2009_atdq",NA,NA,NA,"Chao_2009_atdq",NA,0,"0",NA,"0",NA,TRUE,26.2666664123535,2626,26.7000007629395,25.2999992370605
58,"Allpahuayo B clay-rich soils",NA,NA,NA,"NAC","Loreto","Peru",-3.95,-73.43,"NAC","114",NA,"26.3","NAC","NAC","2763","Dry season length 0.77 mths","clay-rich","NAC","NAC","NAC","ultisol (typic hapludult)",NA,"terra firma",NA,35,"South America","Neotropics","Af","Tropical rainforest","60","Baker_2004_ibia; Malhi_2004_tacw","Malhi_2004_tacw",NA,NA,NA,NA,13,"1","NAC","13","needs review",TRUE,26.1208343505859,2660,26.6000003814697,25.2000007629395
59,"Allpahuayo B sandy soils",NA,NA,NA,"NAC","Loreto","Peru",-3.95,-73.43,"NAC","114",NA,"26.3","NAC","NAC","2763","Dry season length 0.77 mths","sandy","NAC","NAC","NAC","entisol (spodic udipsamment)",NA,"terra firma",NA,35,"South America","Neotropics","Af","Tropical rainforest","61","Baker_2004_ibia; Malhi_2004_tacw","Malhi_2004_tacw",NA,NA,NA,NA,13,"1","NAC","13","needs review",TRUE,26.1208343505859,2660,26.6000003814697,25.2000007629395
60,"Allpahuayo C ALP30",NA,NA,NA,"NAC","Loreto","Peru",-3.9543,-73.4267,"NAC","150",NA,"25.2","NAC","NAC","2689",NA,"loamy sand","NAC","NAC","NAC","Arenosol",NA,"NAC",NA,35,"South America","Neotropics","Af","Tropical rainforest","460","Chao_2009_atdq; del Aguila-Pasquel_2014_tsco; Malhi_2017_tvop","del Aguila-Pasquel_2014_tsco",NA,NA,NA,NA,13,"1","NAC","13","needs review",TRUE,26.1208343505859,2660,26.6000003814697,25.2000007629395
61,"AM10",NA,NA,NA,"Manaus","Amazonas","Brazil",-3.06,-60,"NAC","NAC",NA,"25.6","NAC","NAC","2100",NA,"clay","NAC","NAC","NAC","Oxisol","Mostly clayey oxisols with patches of sandy soils in valley bottoms (AM10).","NAC",NA,36,"South America","Neotropics","Af","Tropical rainforest","82","Steininger_2000_sfsa",NA,NA,NA,"Anderson_2006_toba",NA,0,"0",NA,"0",NA,TRUE,26.9750003814697,2418,27.8999996185303,26.3999996185303
62,"Amacayacu E",NA,NA,NA,"NAC","Amazonas","Colombia",-3.72,-70.3,"NAC","NAC",NA,"NAC","NAC","NAC","2888","rainfall seasonality index SR (%) = 0.13","NAC","NAC","NAC","NAC","Plinthosol",NA,"NAC",NA,6,"South America","Neotropics","Af","Tropical rainforest","1167","Aragao_2009_aabn; Chave_2010_rasp",NA,NA,NA,"Chave_2010_rasp",NA,0,"0",NA,"0",NA,TRUE,26.6041660308838,2953,27.2000007629395,25.8999996185303
63,"Amacayacu U",NA,NA,NA,"NAC","Amazonas","Colombia",-3.72,-70.3,"NAC","NAC",NA,"NAC","NAC","NAC","2888","rainfall seasonality index SR (%) = 0.13","NAC","NAC","NAC","NAC","Plinthosol",NA,"NAC",NA,6,"South America","Neotropics","Af","Tropical rainforest","1168","Aragao_2009_aabn; Chave_2010_rasp",NA,NA,NA,"Chave_2010_rasp",NA,0,"0",NA,"0",NA,TRUE,26.6041660308838,2953,27.2000007629395,25.8999996185303
64,"Amalau",NA,NA,NA,"Tutuila","Eastern District","American Samoa",-14.256152,-170.661824,"other (see geography.notes)","NAC","ori coords fell in ocean. New coords from gmaps","26.9","NAC","NAC","3207",NA,"stony silty clay loam (talus)","NAC","NAC","NAC","NAC","very stony silty clay loam (Nakamura 1984), hereafter referred to as 'talus' and characterized by a loose layer of variable-sized stones and rocks overlaying a clay soil","NAC",NA,16,"Oceania","Oceania","Af","Tropical rainforest","13","Webb_1999_daso",NA,NA,NA,NA,NA,7,"1","1","7",NA,TRUE,25.9833335876465,3483,26.7000007629395,25.2000007629395
65,"Anandgoan",NA,NA,NA,"NAC","Chhattisgarh","India",21.9,81.55,"NAC","300",NA,"27.75","13.2","42.3","1200",NA,"clay","NAC","NAC","NAC","Entisol","The soil of the study area is red laterite derived from metamorphicrock with stones and ferruginous gravel and classifed as Entisols.","NAC",NA,37,"Asia","IndoMalay","Aw","Tropical dry forest","397","Swamy_2004_tgba",NA,NA,NA,"Swamy_2004_tgba",NA,0,"0","1","0",NA,TRUE,26.779167175293,1125,35.4000015258789,19.7999992370605
66,"Anangu, A1",NA,NA,NA,"NAC","Orellana","Ecuador",-0.53,-76.43,"NAC","250",NA,"25.77","NAC","NAC","3252","Dry season length 0.31 mths","NAC","NAC","NAC","NAC","ultisol",NA,"seasonally flooded",NA,38,"South America","Neotropics","Af","Tropical rainforest","466","Malhi_2004_tacw",NA,"Korning (1992)",NA,"Malhi_2004_tacw",NA,0,"0",NA,"0",NA,TRUE,25.1000003814697,3314,25.7000007629395,24.2000007629395
67,"Anangu, A2",NA,NA,NA,"NAC","Orellana","Ecuador",-0.53,-76.43,"NAC","310",NA,"25.47","NAC","NAC","3252","Dry season length 0.31 mths","NAC","NAC","NAC","NAC","ultisol",NA,"terra firma",NA,38,"South America","Neotropics","Af","Tropical rainforest","467","Malhi_2004_tacw",NA,"Korning (1992)",NA,"Malhi_2004_tacw",NA,0,"0",NA,"0",NA,TRUE,25.1000003814697,3314,25.7000007629395,24.2000007629395
68,"Anangu, A3",NA,NA,NA,"NAC","Orellana","Ecuador",-0.53,-76.43,"NAC","370",NA,"25.17","NAC","NAC","3252","Dry season length 0.31 mths","NAC","NAC","NAC","NAC","ultisol",NA,"terra firma",NA,38,"South America","Neotropics","Af","Tropical rainforest","468","Malhi_2004_tacw",NA,"Korning (1992)",NA,"Malhi_2004_tacw",NA,0,"0",NA,"0",NA,TRUE,25.1000003814697,3314,25.7000007629395,24.2000007629395
69,"Andrews 1",NA,NA,"H.J. Andrews Experimental Forest","Blue River","Oregon","United States of America",44.2576,-122.2012,"NAC","780",NA,"NAC","NAC","NAC","NAC",NA,"loam","NAC","NAC","NAC","NAC",NA,NA,NA,39,"North America","Nearctic","Csb","Temperate mountain system",NA,"Luyssaert_2007_cbob","Law_2004_dace",NA,1,"Luyssaert_2007_cbob","Maria",17,"1","supersite","17","needs merge",TRUE,8.74583339691162,1735,17.2999992370605,1.5
70,"Andrews 10",NA,NA,"H.J. Andrews Experimental Forest","Blue River","Oregon","United States of America",44.2479,-122.2008,"NAC","785",NA,"NAC","NAC","NAC","NAC",NA,"loam","NAC","NAC","NAC","NAC",NA,NA,NA,39,"North America","Nearctic","Csb","Temperate mountain system",NA,"DeAngelis_1981_pofe; Luyssaert_2007_cbob","Law_2004_dace",NA,1,"Luyssaert_2007_cbob","Maria",17,"1","supersite","17","needs merge",TRUE,8.70416641235352,1726,17.2999992370605,1.5
71,"Andrews 11",NA,NA,"H.J. Andrews Experimental Forest","Blue River","Oregon","United States of America",44.2334,-122.1731,"NAC","738",NA,"NAC","NAC","NAC","NAC",NA,"loam","NAC","NAC","NAC","NAC",NA,NA,NA,39,"North America","Nearctic","Csb","Temperate mountain system",NA,"Luyssaert_2007_cbob","Law_2004_dace",NA,1,"Luyssaert_2007_cbob","Maria",17,"1","supersite","17","needs merge",TRUE,8.22083377838135,1676,16.7000007629395,1.20000004768372
72,"Andrews 12",NA,NA,"H.J. Andrews Experimental Forest","Blue River","Oregon","United States of America",44.2587,-122.1818,"NAC","812",NA,"NAC","NAC","NAC","NAC",NA,"loam","NAC","NAC","NAC","NAC",NA,NA,NA,39,"North America","Nearctic","Csb","Temperate mountain system",NA,"Luyssaert_2007_cbob","Law_2004_dace",NA,1,"Luyssaert_2007_cbob","Maria",17,"1","supersite","17","needs merge",TRUE,8.20833301544189,1723,16.7000007629395,1.20000004768372
73,"Andrews 2",NA,NA,"H.J. Andrews Experimental Forest","Blue River","Oregon","United States of America",44.2515,-122.2018,"NAC","815",NA,"NAC","NAC","NAC","NAC",NA,"loam","NAC","NAC","NAC","NAC",NA,NA,NA,39,"North America","Nearctic","Csb","Temperate mountain system",NA,"Luyssaert_2007_cbob","Law_2004_dace",NA,1,"Luyssaert_2007_cbob","Maria",17,"1","supersite","17","needs merge",TRUE,8.74583339691162,1735,17.2999992370605,1.5
74,"Andrews 3",NA,NA,"H.J. Andrews Experimental Forest","Blue River","Oregon","United States of America",44.2588,-122.2041,"NAC","766",NA,"NAC","NAC","NAC","NAC",NA,"loam","NAC","NAC","NAC","NAC",NA,NA,NA,39,"North America","Nearctic","Csb","Temperate mountain system",NA,"Luyssaert_2007_cbob","Law_2004_dace",NA,1,"Luyssaert_2007_cbob","Maria",17,"1","supersite","17","needs merge",TRUE,9,1748,17.6000003814697,1.60000002384186
75,"Andrews 4",NA,NA,"H.J. Andrews Experimental Forest","Blue River","Oregon","United States of America",44.2477,-122.1974,"NAC","737",NA,"NAC","NAC","NAC","NAC",NA,"loam","NAC","NAC","NAC","NAC",NA,NA,NA,39,"North America","Nearctic","Csb","Temperate mountain system",NA,"Luyssaert_2007_cbob","Law_2004_dace",NA,1,"Luyssaert_2007_cbob","Maria",17,"1","supersite","17","needs merge",TRUE,9.07916641235352,1719,17.7000007629395,1.70000004768372
76,"Andrews 5",NA,NA,"H.J. Andrews Experimental Forest","Blue River","Oregon","United States of America",44.2347,-122.1766,"NAC","712",NA,"NAC","NAC","NAC","NAC",NA,"loam","NAC","NAC","NAC","NAC",NA,NA,NA,39,"North America","Nearctic","Csb","Temperate mountain system",NA,"Luyssaert_2007_cbob","Law_2004_dace",NA,1,"Luyssaert_2007_cbob","Maria",17,"1","supersite","17","needs merge",TRUE,8.5,1679,17,1.39999997615814
77,"Andrews 6",NA,NA,"H.J. Andrews Experimental Forest","Blue River","Oregon","United States of America",44.2548,-122.1827,"NAC","782",NA,"NAC","NAC","NAC","NAC",NA,"loam","NAC","NAC","NAC","NAC",NA,NA,NA,39,"North America","Nearctic","Csb","Temperate mountain system",NA,"Luyssaert_2007_cbob","Law_2004_dace",NA,1,"Luyssaert_2007_cbob","Maria",17,"1","supersite","17","needs merge",TRUE,8.62083339691162,1701,17.2000007629395,1.39999997615814
78,"Andrews 7",NA,NA,"H.J. Andrews Experimental Forest","Blue River","Oregon","United States of America",44.2705,-122.2173,"NAC","700",NA,"NAC","NAC","NAC","NAC",NA,"loam","NAC","NAC","NAC","NAC",NA,NA,NA,39,"North America","Nearctic","Csb","Temperate mountain system",NA,"Luyssaert_2007_cbob","Law_2004_dace",NA,1,"Luyssaert_2007_cbob","Maria",17,"1","supersite","17","needs merge",TRUE,8.63333320617676,1785,17.2000007629395,1.5
79,"Andrews 8",NA,NA,"H.J. Andrews Experimental Forest","Blue River","Oregon","United States of America",44.2699,-122.2265,"NAC","859",NA,"NAC","NAC","NAC","NAC",NA,"loam","NAC","NAC","NAC","NAC",NA,NA,NA,39,"North America","Nearctic","Csb","Temperate mountain system",NA,"Luyssaert_2007_cbob","Law_2004_dace",NA,1,"Luyssaert_2007_cbob","Maria",17,"1","supersite","17","needs merge",TRUE,8.26666641235352,1808,16.7999992370605,1.29999995231628
80,"Andrews 9",NA,NA,"H.J. Andrews Experimental Forest","Blue River","Oregon","United States of America",44.2626,-122.1944,"NAC","846",NA,"NAC","NAC","NAC","NAC",NA,"loam","NAC","NAC","NAC","NAC",NA,NA,NA,39,"North America","Nearctic","Csb","Temperate mountain system",NA,"Luyssaert_2007_cbob","Law_2004_dace",NA,1,"Luyssaert_2007_cbob","Maria",17,"1","supersite","17","needs merge",TRUE,8.52499961853027,1736,17.1000003814697,1.39999997615814
81,"Andrews watershed",NA,NA,"H.J. Andrews Experimental Forest","Blue River","Oregon","United States of America",44.25,-122.17,"NAC","531",NA,"8.7","NAC","NAC","2370",NA,"loam","NAC","NAC","NAC","NAC",NA,NA,NA,39,"North America","Nearctic","Csb","Temperate mountain system",NA,"Sulzmann_2005_coal","Sulzmann_2005_coal",NA,1,"Luyssaert_2007_cbob","Maria",17,"1","supersite","17","needs merge",TRUE,7.82083320617676,1718,16.2000007629395,1
82,"Andrews watershed 10",NA,NA,NA,"NAC","Oregon","United States of America",44.25,-122.33,"NAC","430",NA,"8.5","NAC","NAC","2250",NA,"loam","NAC","NAC","NAC","NAC",NA,NA,NA,39,"North America","Nearctic","Csb","Temperate mountain system",NA,"DeAngelis_1981_pofe","DeAngelis_1981_pofe","DeAngelis et al 1981 IBP_101,",1,"Luyssaert_2007_cbob","Maria",0,"0",NA,"0",NA,TRUE,6.97083330154419,2082,15,0.899999976158142
83,"Apiau,Roraima",NA,NA,NA,"NAC","Roraima","Brazil",2.57,-61.3,"NAC","NAC",NA,"NAC","NAC","NAC","1902","rainfall seasonality index SR (%) = 0.47","NAC","NAC","NAC","NAC","Acrisol",NA,"NAC",NA,40,"South America","Neotropics","Am","Tropical moist forest","1169","Barbosa_1996_canf; Chave_2010_rasp",NA,NA,NA,"Chave_2010_rasp",NA,0,"0",NA,"0",NA,TRUE,27.2124996185303,1841,27.8999996185303,26
84,"Appomattox Buckingham S.F., Chestnut Ridge Natural Area",NA,NA,NA,"NAC","Virginia","United States of America",37.407916,-78.622173,"NAC","NAC",NA,"NAC","NAC","NAC","NAC",NA,"NAC","NAC","NAC","NAC","NAC",NA,NA,NA,41,"North America","Nearctic","Cfa","Subtropical humid forest",NA,"McGarvey_2015_csio",NA,NA,NA,NA,"Maria",0,"0",NA,"0",NA,TRUE,13.3958330154419,1116,24.3999996185303,1.70000004768372
85,"Araracuara",NA,NA,NA,"NAC","Amazonas","Colombia",-0.63,-72.37,"NAC","NAC",NA,"25.5","NAC","NAC","2998",NA,"NAC","NAC","NAC","NAC","NAC",NA,"NAC",NA,42,"South America","Neotropics","Af","Tropical rainforest","131","Overman_1994_eorm",NA,NA,NA,"Keith_2009_rofb; Liu_2014_htpa",NA,0,"0",NA,"0",NA,TRUE,26.4375,2704,27.1000003814697,25.1000003814697
86,"Arengou",NA,NA,NA,"Baiyu","Sichuan","China",31.2,98.8,"NAC","NAC",NA,"5.9","NAC","NAC","555",NA,"NAC","NAC","NAC","NAC","NAC",NA,NA,NA,43,"Asia","Palearctic","Dwc","Subtropical mountain system",NA,"Luo_1996_ponp",NA,"Liu_2014_htpa",NA,"Liu_2014_htpa","Maria",0,"0",NA,"0",NA,TRUE,4.49583339691162,574,12.5,-4.59999990463257
87,"Arroyo Negro",NA,NA,NA,"Yucatan","Campeche","Mexico",17.883,-89.283,"NAC","NAC",NA,"25","NAC","NAC","1418",NA,"NAC","NAC","NAC","NAC","NAC","Regionally, soils are shallow, calcareous, and highly permeable due to organic matter content and underlying limestone bedrock.","NAC","GROA site.id #295",44,"North America","Neotropics","Aw","Tropical moist forest","338","Eaton_2009_locs; Read_2003_robf",NA,NA,NA,NA,NA,0,"0",NA,"0",NA,TRUE,25.7041664123535,1377,27.7000007629395,22.7000007629395
88,"Asa",NA,NA,NA,"NAC","Kronoberg","Sweden",57.13,14.75,"NAC","190",NA,"7.5","NAC","NAC","712",NA,"NAC","NAC","NAC","NAC","NAC",NA,NA,NA,45,"Europe","Palearctic","Cfb","Temperate continental forest",NA,"Lindroth_2008_mone",NA,NA,NA,"Yu_2014_hcdu","Maria",0,"0",NA,"0",NA,TRUE,5.90833330154419,680,15.5,-2.59999990463257
89,"Ashu Kyoto",NA,NA,NA,"NAC","Kyoto","Japan",35.33,135.75,"NAC","680",NA,"11.3","NAC","NAC","2788",NA,"clay loam","NAC","NAC","NAC","NAC",NA,NA,NA,46,"Asia","Palearctic","Cfa","Temperate mountain system",NA,"DeAngelis_1981_pofe","DeAngelis_1981_pofe","DeAngelis et al 1981 IBP_39,ods,",1,"Luyssaert_2007_cbob","Maria",0,"0",NA,"0",NA,TRUE,10.3291664123535,1988,22.7000007629395,-1
90,"ASN-02_Asenanyo F.R. 2",NA,NA,NA,"NAC","Ashanti","Ghana",6.56,-2.22,"NAC","270",NA,"25.7","NAC","NAC","1416",NA,"NAC","NAC","NAC","NAC","NAC",NA,"NAC",NA,47,"Africa","Afrotropics","Aw","Tropical rainforest","255","Lewis_2009_icsi",NA,NA,NA,"Lewis2009; Liu_2014_htpa",NA,0,"0",NA,"0",NA,TRUE,26.1041660308838,1380,27.6000003814697,24.2999992370605
91,"ASN-04_Asenanyo F.R. 4",NA,NA,NA,"NAC","Ashanti","Ghana",6.48,-2.17,"NAC","230",NA,"25.6","NAC","NAC","1434",NA,"NAC","NAC","NAC","NAC","NAC",NA,"NAC",NA,47,"Africa","Afrotropics","Aw","Tropical rainforest","254","Lewis_2009_icsi",NA,NA,NA,"Lewis2009; Liu_2014_htpa",NA,0,"0",NA,"0",NA,TRUE,26.1749992370605,1395,27.6000003814697,24.3999996185303
92,"AspenFACE",NA,NA,NA,"Rhinelander","Wisconsin","United States of America",45.667,-89.6167,"NAC","NAC",NA,"4","NAC","NAC","810",NA,"sandy loam","NAC","NAC","NAC","NAC",NA,NA,NA,48,"North America","Nearctic","Dfb","Temperate continental forest",NA,"King_2004_amso; King_2005_tocn; Norby_2005_frte",NA,NA,NA,NA,NA,19,"1",NA,"19",NA,TRUE,4.40416669845581,797,18.8999996185303,-12.5
93,"ASU-01_Asukese F.R. 1",NA,NA,NA,"NAC","Brong-Ahafo","Ghana",7.14,-2.45,"NAC","285",NA,"25.9","NAC","NAC","1212",NA,"NAC","NAC","NAC","NAC","NAC",NA,"NAC",NA,49,"Africa","Afrotropics","Aw","Tropical rainforest","256","Lewis_2009_icsi",NA,NA,NA,"Lewis2009; Liu_2014_htpa",NA,0,"0",NA,"0",NA,TRUE,25.8708343505859,1196,27.6000003814697,24
94,"Atherton Gadgarra",NA,NA,NA,"Athterton","Queensland","Australia",-17.3,145.72,"NAC","700",NA,"NAC","NAC","NAC","2100",NA,"NAC","50","13","27","NAC","typical krasnozem humox (0.50/0.13/0.37 sand/silt/clay, 0-30 cm)","NAC",NA,50,"Australia","Australasia","Cfa","Tropical rainforest","3","Stocker_2013_ntfa",NA,NA,NA,"Stocker_2013_ntfa",NA,0,"0",NA,"0",NA,TRUE,20.7875003814697,2769,24,16.5
95,"Atherton Tableland",NA,NA,NA,"Athterton","Queensland","Australia",-17.28,145.57,"NAC","720",NA,"20","14.7","20.2","1427",NA,"NAC","15","38","47","NAC","dark red basaltic / krasnozem 0.15/0.38/0.47 sand/silt/clay (0-30 cm)","NAC",NA,50,"Australia","Australasia","Cfa","Tropical rainforest","4","Stocker_2013_ntfa",NA,NA,NA,NA,NA,0,"0",NA,"0",NA,TRUE,20.7374992370605,2562,24,16.1000003814697
96,"Atherton Wongabel",NA,NA,NA,"Athterton","Queensland","Australia",-17.32,145.5,"NAC","760",NA,"NAC","NAC","NAC","1560",NA,"NAC","53","12","34","NAC","typical krasnozem ochrept; (0.53/0.12/0.34 sand/silt/clay, 0-30 cm)","NAC",NA,50,"Australia","Australasia","Cwa","Tropical rainforest","2","Stocker_2013_ntfa",NA,NA,NA,"Stocker_2013_ntfa",NA,0,"0",NA,"0",NA,TRUE,20.3708324432373,2084,23.7000007629395,15.6000003814697
97,"Aubure (Natural regeneration)",NA,NA,NA,"NAC","Haut-Rhin","France",48.2,7.18,"NAC","1000",NA,"5.4","NAC","NAC","1192",NA,"loam","NAC","NAC","NAC","NAC",NA,NA,NA,51,"Europe","Palearctic","Cfb","Temperate mountain system",NA,"Luyssaert_2007_cbob; Schulze_2000_tcan","Schulze_2000_tcan",NA,1,"Luyssaert_2007_cbob","Maria",0,"0",NA,"0",NA,TRUE,7.02083349227905,1282,15.3999996185303,-0.5
98,"Aubure (Planted)",NA,NA,NA,"NAC","Haut-Rhin","France",48.2,7.18,"NAC","1050",NA,"5.4","NAC","NAC","1192",NA,"loam","NAC","NAC","NAC","NAC",NA,NA,NA,51,"Europe","Palearctic","Cfb","Temperate mountain system",NA,"Luyssaert_2007_cbob; Schulze_2000_tcan","Schulze_2000_tcan",NA,1,"Luyssaert_2007_cbob","Maria",0,"0",NA,"0",NA,TRUE,7.02083349227905,1282,15.3999996185303,-0.5
99,"Austin Cary Management Forest",NA,NA,NA,"NAC","Florida","United States of America",29.74,-82.21,"NAC","50",NA,"21.7","NAC","NAC","1330",NA,"clay loam","NAC","NAC","NAC","NAC",NA,NA,NA,52,"North America","Nearctic","Cfa","Subtropical humid forest",NA,"Luyssaert_2007_cbob; Yu_2014_hcdu",NA,"Ameriflux website",1,"Luyssaert_2007_cbob","Maria",21,"1",NA,"21",NA,TRUE,20.2416667938232,1308,26.8999996185303,12.3000001907349
100,"Bago Mountain swidden cultivation fallows chronosequence",NA,NA,NA,"Karen","Bago","Myanmar",18.875,95.891,"NAC","350",NA,"27","NAC","NAC","1900",NA,"NAC","NAC","NAC","NAC","Ultisol",NA,"NAC",NA,53,"Asia","IndoMalay","Aw","Tropical rainforest","385","Chan_2013_eoam",NA,NA,NA,NA,NA,22,"1","0","22","need to return to two original refs",TRUE,24.841667175293,1248,29,20.1000003814697
101,"Baihe, Nanping",NA,NA,NA,"Nanping","Sichuan","China",33.25,103.77,"NAC","NAC",NA,"4","NAC","NAC","832",NA,"NAC","NAC","NAC","NAC","NAC",NA,NA,NA,54,"Asia","Palearctic","Dwb","Subtropical mountain system",NA,"Luo_1996_ponp",NA,"Liu_2014_htpa",NA,"Liu_2014_htpa","Maria",23,"1",NA,"0",NA,TRUE,3.99166679382324,691,13.3999996185303,-6.80000019073486
102,"Baisha",NA,NA,NA,"NAC","Guangxi","China",21.7,109.6,"NAC","NAC",NA,"23.8","NAC","NAC","1581",NA,"NAC","NAC","NAC","NAC","NAC",NA,"NAC",NA,55,"Asia","IndoMalay","Cwa","Subtropical humid forest","404","Luo_1996_ponp",NA,NA,NA,"Liu_2014_htpa",NA,24,"1",NA,"0",NA,TRUE,22.4958324432373,1655,28.7000007629395,14
103,"Baiyin'aobao",NA,NA,NA,"NAC","Inner Mongol","China",43.51,117.22,"NAC","NAC",NA,"0.7","NAC","NAC","381",NA,"NAC","NAC","NAC","NAC","NAC",NA,NA,NA,56,"Asia","Palearctic","Dwb","Temperate steppe",NA,"Luo_1996_ponp",NA,"Liu_2014_htpa",NA,"Liu_2014_htpa","Maria",0,"0",NA,"0",NA,TRUE,0.683333277702332,359,18.5,-20.3999996185303
104,"Baiyu",NA,NA,NA,"NAC","Sichuan","China",31.2,98.8,"NAC","NAC",NA,"4.9","NAC","NAC","549",NA,"NAC","NAC","NAC","NAC","NAC",NA,NA,NA,43,"Asia","Palearctic","Dwc","Subtropical mountain system",NA,"Luo_1996_ponp",NA,"Liu_2014_htpa",NA,"Liu_2014_htpa","Maria",0,"0",NA,"0",NA,TRUE,4.49583339691162,574,12.5,-4.59999990463257
105,"Bajo Calima Concession Chronosequence",NA,NA,NA,"NAC","Valle del Cauca","Colombia",3.916667,-77,"NAC","100",NA,"27.3","21.4","30.3","7000","transitional tropical wet - rain forest","clay","NAC","NAC","NAC","Entisol",NA,"NAC",NA,57,"South America","Neotropics","Af","Tropical rainforest","1400","Faber-Langendoen_1992_ecor",NA,NA,NA,"Bonner_2013_amgc",NA,25,"1",NA,"0",NA,TRUE,26.2749996185303,5546,26.6000003814697,25.8999996185303
106,"Balikun",NA,NA,NA,"NAC","Xinjiang","China",43.8,93,"NAC","NAC",NA,"-0.7","NAC","NAC","684",NA,"NAC","NAC","NAC","NAC","NAC",NA,NA,NA,58,"Asia","Palearctic","BWk","Temperate mountain system",NA,"Luo_1996_ponp",NA,"Liu_2014_htpa",NA,"Liu_2014_htpa","Maria",0,"0",NA,"0",NA,TRUE,3.48750019073486,175,19.7000007629395,-16.2999992370605
107,"Balmoral",NA,NA,NA,"NAC","Canterbury","New Zealand",-42.87,172.75,"NAC","198",NA,"9.77","NAC","NAC","652",NA,"clay loam","NAC","NAC","NAC","NAC",NA,NA,NA,59,"Oceania","Australasia","Cfb","Temperate oceanic forest",NA,"Arneth_1998_nepn; Arneth_1999_aoac","Arneth_1998_nepn; Arneth_1999_aoac",NA,1,"Luyssaert_2007_cbob","Maria",0,"0",NA,"0",NA,TRUE,11.0625,604,16.5,5
108,"BAN-01b_Banco IBP Plateau",NA,NA,NA,"NAC","Lagunes","Cote D'Ivoire",5.53,-4.03,"NAC","50",NA,"26.2","NAC","NAC","1683",NA,"NAC","NAC","NAC","NAC","NAC",NA,"NAC",NA,60,"Africa","Afrotropics","Aw","Tropical rainforest","242","Lewis_2009_icsi",NA,NA,NA,"Lewis2009; Liu_2014_htpa",NA,0,"0",NA,"0",NA,TRUE,26.3958339691162,1637,27.7000007629395,24.2000007629395
109,"BAN-02b_Banco IBP Valley",NA,NA,NA,"NAC","Lagunes","Cote D'Ivoire",5.53,-4.03,"NAC","50",NA,"26.2","NAC","NAC","1683",NA,"NAC","NAC","NAC","NAC","NAC",NA,"NAC",NA,60,"Africa","Afrotropics","Aw","Tropical rainforest","243","Lewis_2009_icsi",NA,NA,NA,"Lewis2009; Liu_2014_htpa",NA,0,"0",NA,"0",NA,TRUE,26.3958339691162,1637,27.7000007629395,24.2000007629395
110,"Banco plateau",NA,NA,NA,"NAC","Lagunes","Cote D'Ivoire",5.38,-4.03,"NAC","100","elevation approx.- probably 50-100 m","26.2","NAC","NAC","2095",NA,"NAC","NAC","NAC","NAC","NAC","Very sandy","NAC",NA,60,"Africa","Afrotropics","Aw","Tropical rainforest","240","Bernhard-Reversat_1978_safo; Clark_2013_ntfc; DeAngelis_1981_pofe",NA,"Huttel 1975. Bernhard-Reversat et al. 1972; 1978",NA,NA,NA,28,"1","1","25","unique from Banco valley, but probably not from BAN-01b_Banco IBP Plateau",TRUE,26.5791664123535,1697,28.1000003814697,24.3999996185303
111,"Banco Valley",NA,NA,NA,"NAC","Lagunes","Cote D'Ivoire",5.38,-4.03,"NAC","50","elevation approx.- probably 50-100 m","26.2","NAC","NAC","NAC",NA,"NAC","NAC","NAC","NAC","NAC","Very sandy","NAC",NA,60,"Africa","Afrotropics","Aw","Tropical rainforest","241","Bernhard-Reversat_1978_safo; Clark_2013_ntfc",NA,"Huttel 1975. Bernhard-Reversat et al. 1972; 1978",NA,NA,NA,28,"1","1","25","unique from Banco plateau but probably not from BAN-02b_Banco IBP Valley",TRUE,26.5791664123535,1697,28.1000003814697,24.3999996185303
112,"BangorFACE",NA,NA,NA,"Bangor","Gwynedd","United Kingdom",53.233,-4.0167,"NAC","15",NA,"11","NAC","NAC","1034",NA,"loam","NAC","NAC","NAC","NAC",NA,NA,NA,61,"Europe","Palearctic","Cfb","Temperate oceanic forest",NA,"Hoosbeek_2011_face; Smith_2012_tsdi",NA,NA,NA,NA,NA,0,"0",NA,"0",NA,TRUE,9.26666641235352,1135,15.1999998092651,4.19999980926514
113,"Bannadpare",NA,NA,NA,"NAC","Karnataka","India",12.08,75.7,"NAC","200",NA,"27","NAC","NAC","5310",NA,"NAC","NAC","NAC","NAC","Oxisol",NA,"NAC",NA,62,"Asia","IndoMalay","Am","Tropical rainforest","326","Clark_2013_ntfc; Olson_2013_nmna; Rai_1986_esof",NA,"Rai and Proctor 1986a,b",NA,NA,NA,0,"0",NA,"0",NA,TRUE,26.3083324432373,4718,28.8999996185303,24.7000007629395
114,"Baotianman Nature Reserve",NA,NA,NA,"Neixiang","Henan","China",33.483333,111.958333,"NAC","1320",NA,"15.2","NAC","NAC","900",NA,"NAC","NAC","NAC","NAC","NAC",NA,NA,NA,63,"Asia","Palearctic","Cwa","Subtropical mountain system",NA,"Liu_1998_banp; Liu_2001_soba",NA,NA,NA,"Lin_2012_tvia","Maria",29,"1",NA,"26",NA,TRUE,10.9291667938232,886,22.1000003814697,-0.899999976158142
115,"Baozuo 1",NA,NA,NA,"Ruo'ergai","Sichuan","China",33.47,103.46,"NAC","NAC",NA,"2.9","NAC","NAC","788",NA,"NAC","NAC","NAC","NAC","NAC",NA,NA,NA,54,"Asia","Palearctic","Dwb","Temperate mountain system",NA,"Luo_1996_ponp",NA,"Liu_2014_htpa",NA,"Liu_2014_htpa","Maria",30,"1",NA,"0",NA,TRUE,0.754166662693024,702,9.89999961853027,-9.69999980926514
116,"Baozuo 10",NA,NA,NA,"Ruo'ergai","Sichuan","China",33.48,103.54,"NAC","NAC",NA,"2.9","NAC","NAC","797",NA,"NAC","NAC","NAC","NAC","NAC",NA,NA,NA,54,"Asia","Palearctic","Dwb","Temperate mountain system",NA,"Luo_1996_ponp",NA,"Liu_2014_htpa",NA,"Liu_2014_htpa","Maria",30,"1",NA,"0",NA,TRUE,0.504166662693024,704,9.80000019073486,-10.1000003814697
117,"Baozuo 11",NA,NA,NA,"Ruo'ergai","Sichuan","China",33.53,103.66,"NAC","NAC",NA,"3.5","NAC","NAC","809",NA,"NAC","NAC","NAC","NAC","NAC",NA,NA,NA,54,"Asia","Palearctic","Dwb","Temperate mountain system",NA,"Luo_1996_ponp",NA,"Liu_2014_htpa",NA,"Liu_2014_htpa","Maria",31,"1",NA,"0",NA,TRUE,2.51250004768372,687,11.8000001907349,-8.10000038146973
118,"Baozuo 12",NA,NA,NA,"Ruo'ergai","Sichuan","China",33.57,103.32,"NAC","NAC",NA,"2.6","NAC","NAC","769",NA,"NAC","NAC","NAC","NAC","NAC",NA,NA,NA,54,"Asia","Palearctic","Dwb","Temperate mountain system",NA,"Luo_1996_ponp",NA,"Liu_2014_htpa",NA,"Liu_2014_htpa","Maria",0,"0",NA,"0",NA,TRUE,1.72083330154419,688,10.8999996185303,-8.89999961853027
119,"Baozuo 13",NA,NA,NA,"Ruo'ergai","Sichuan","China",33.45,103.5,"NAC","NAC",NA,"2.9","NAC","NAC","794",NA,"NAC","NAC","NAC","NAC","NAC",NA,NA,NA,54,"Asia","Palearctic","Dwb","Temperate mountain system",NA,"Luo_1996_ponp",NA,"Liu_2014_htpa",NA,"Liu_2014_htpa","Maria",30,"1",NA,"0",NA,TRUE,1.32499992847443,701,10.6000003814697,-9.39999961853027
120,"Baozuo 2",NA,NA,NA,"Ruo'ergai","Sichuan","China",33.35,103.41,"NAC","NAC",NA,"2.7","NAC","NAC","788",NA,"NAC","NAC","NAC","NAC","NAC",NA,NA,NA,54,"Asia","Palearctic","Dwb","Temperate mountain system",NA,"Luo_1996_ponp",NA,"Liu_2014_htpa",NA,"Liu_2014_htpa","Maria",0,"0",NA,"0",NA,TRUE,0.179166704416275,720,9.19999980926514,-10.1999998092651
121,"Baozuo 3",NA,NA,NA,"Ruo'ergai","Sichuan","China",33.32,103.61,"NAC","NAC",NA,"3.5","NAC","NAC","811",NA,"NAC","NAC","NAC","NAC","NAC",NA,NA,NA,54,"Asia","Palearctic","Dwb","Subtropical mountain system",NA,"Luo_1996_ponp",NA,"Liu_2014_htpa",NA,"Liu_2014_htpa","Maria",23,"1",NA,"0",NA,TRUE,-0.0416666269302368,741,8.89999961853027,-10
122,"Baozuo 4",NA,NA,NA,"Ruo'ergai","Sichuan","China",33.37,103.36,"NAC","NAC",NA,"2.7","NAC","NAC","781",NA,"NAC","NAC","NAC","NAC","NAC",NA,NA,NA,54,"Asia","Palearctic","Dwb","Temperate mountain system",NA,"Luo_1996_ponp",NA,"Liu_2014_htpa",NA,"Liu_2014_htpa","Maria",0,"0",NA,"0",NA,TRUE,2.17083334922791,698,11.1999998092651,-8.30000019073486
123,"Baozuo 5",NA,NA,NA,"Ruo'ergai","Sichuan","China",33.43,103.49,"NAC","NAC",NA,"2.9","NAC","NAC","794",NA,"NAC","NAC","NAC","NAC","NAC",NA,NA,NA,54,"Asia","Palearctic","Dwb","Temperate mountain system",NA,"Luo_1996_ponp",NA,"Liu_2014_htpa",NA,"Liu_2014_htpa","Maria",30,"1",NA,"0",NA,TRUE,0.337500065565109,714,9.5,-10.1000003814697
124,"Baozuo 6",NA,NA,NA,"Ruo'ergai","Sichuan","China",33.4,103.37,"NAC","NAC",NA,"2.7","NAC","NAC","782",NA,"NAC","NAC","NAC","NAC","NAC",NA,NA,NA,54,"Asia","Palearctic","Dwb","Temperate mountain system",NA,"Luo_1996_ponp",NA,"Liu_2014_htpa",NA,"Liu_2014_htpa","Maria",0,"0",NA,"0",NA,TRUE,1.41666662693024,696,10.5,-9
125,"Baozuo 7",NA,NA,NA,"Ruo'ergai","Sichuan","China",33.38,103.5,"NAC","NAC",NA,"2.9","NAC","NAC","797",NA,"NAC","NAC","NAC","NAC","NAC",NA,NA,NA,54,"Asia","Palearctic","Dwb","Temperate mountain system",NA,"Luo_1996_ponp",NA,"Liu_2014_htpa",NA,"Liu_2014_htpa","Maria",0,"0",NA,"0",NA,TRUE,-0.349999994039536,739,8.89999961853027,-10.6999998092651
126,"Baozuo 8",NA,NA,NA,"Ruo'ergai","Sichuan","China",33.33,103.47,"NAC","NAC",NA,"3.3","NAC","NAC","795",NA,"NAC","NAC","NAC","NAC","NAC",NA,NA,NA,54,"Asia","Palearctic","Dwb","Temperate mountain system",NA,"Luo_1996_ponp",NA,"Liu_2014_htpa",NA,"Liu_2014_htpa","Maria",0,"0",NA,"0",NA,TRUE,-0.687500059604645,746,8.39999961853027,-10.8999996185303
127,"Baozuo 9",NA,NA,NA,"Ruo'ergai","Sichuan","China",33.62,103.39,"NAC","NAC",NA,"2.6","NAC","NAC","776",NA,"NAC","NAC","NAC","NAC","NAC",NA,NA,NA,54,"Asia","Palearctic","Dwb","Temperate mountain system",NA,"Luo_1996_ponp",NA,"Liu_2014_htpa",NA,"Liu_2014_htpa","Maria",0,"0",NA,"0",NA,TRUE,1.33749997615814,675,10.6000003814697,-9.30000019073486
128,"Baozuo Cupressus, Sabina",NA,NA,NA,"Ruo'ergai","Sichuan","China",33.45,103.39,"NAC","NAC",NA,"2.7","NAC","NAC","782",NA,"NAC","NAC","NAC","NAC","NAC",NA,NA,NA,54,"Asia","Palearctic","Dwb","Temperate mountain system",NA,"Luo_1996_ponp",NA,"Liu_2014_htpa",NA,"Liu_2014_htpa","Maria",0,"0",NA,"0",NA,TRUE,1.10416674613953,705,10.1999998092651,-9.30000019073486
129,"Barama, NW Guyana",NA,NA,NA,"NAC","Barima-Waini","Guyana",7.7,-59.943,"NAC","NAC",NA,"NAC","NAC","NAC","2599",NA,"NAC","NAC","NAC","NAC","NAC",NA,"NAC",NA,64,"South America","Neotropics","Af","Tropical rainforest","1357","Poorter_2015_decs",NA,NA,NA,NA,NA,0,"0",NA,"0",NA,TRUE,26.1375007629395,1881,26.8999996185303,25.2000007629395
130,"Barro Colorado Island chronosequence",NA,NA,"Barro Colorado Island (BCI)",NA,"Colon","Panama",9.15,-79.833,"NAC","NAC",NA,"26","NAC","NAC","2600",NA,"NAC","NAC","NAC","NAC","NAC",NA,"NAC",NA,7,"North America","Neotropics","Am","Tropical moist forest","277","Mascaro_2012_soac",NA,NA,NA,NA,NA,34,"1;2;3","NAC","31","some plots may fall within Barro Colorado Island CTFS-ForestGEO plot",TRUE,26.533332824707,2391,27.7999992370605,25.7000007629395
131,"Barro Colorado Island CTFS-ForestGEO plot","CTFS-ForestGEO","BCI","Barro Colorado Island (BCI)",NA,"Colon","Panama",9.1543,-79.8461,"NAC","140","lowland, on a 1500-ha island in Gatun Lake; elevation is midpoint between min and max","27.4","NAC","NAC","2167","Dry season length 3.54 mths; Mean maximum dry season moisture deficit (mm) =514","NAC","NAC","NAC","NAC","Oxisol","parent rock beneath the plateau is anandesite flow; soils under most of the plot are well-weathered kaolinitic Oxisols with low cation exchange capacity. ","terra firma",NA,7,"North America","Neotropics","Am","Tropical moist forest","470","Chave_2003_satv; Chave_2008_aepa; Foster_1982_fobc; Johnson_2018_csss; Lutz_2018_giol; Malhi_2011_taoe; Meakem_2018_rots; Poorter_2015_decs","Meakem_2017_rots;Anderson-Teixeira_2015_cawn","additional references: Foster 1982, Anderson-Teixeira_2015_cawn and references therein.  Updated info at: https://github.com/forestgeo/Site-Data/blob/master/ForestGEO_site_data.csv.",NA,NA,"Kristina Anderson-Teixeira",34,"1;2;3","NAC","31",NA,TRUE,26.0458335876465,2210,27.2999992370605,25.2000007629395
132,"Bartlett",NA,NA,"Bartlett","NAC","New Hampshire","United States of America",44.06,-71.29,"NAC","272",NA,"6.93","NAC","NAC","1270",NA,"loam","NAC","NAC","NAC","NAC",NA,NA,NA,65,"North America","Nearctic","Dfb","Temperate mountain system",NA,"Luyssaert_2007_cbob; Ollinger_2005_nppa; Yanai_2006_tvah",NA,"Ameriflux",1,"Luyssaert_2007_cbob","Kristina Anderson-Teixeira",35,"1",NA,"32",NA,TRUE,6.07500028610229,1223,19.3999996185303,-8.19999980926514
133,"Battle Ax 1",NA,NA,NA,"NAC","Oregon","United States of America",44.7782,-122.1476,"NAC","1284",NA,"NAC","NAC","NAC","NAC",NA,"loam","NAC","NAC","NAC","NAC",NA,NA,NA,66,"North America","Nearctic","Csb","Temperate mountain system",NA,"Luyssaert_2007_cbob",NA,"Sun et al 2004",1,"Luyssaert_2007_cbob","Kristina Anderson-Teixeira",0,"0",NA,"0",NA,TRUE,5.97499990463257,2397,14.3000001907349,-0.100000001490116
134,"Battle Ax 2",NA,NA,NA,"NAC","Oregon","United States of America",44.8094,-122.2324,"NAC","1007",NA,"NAC","NAC","NAC","NAC",NA,"loam","NAC","NAC","NAC","NAC",NA,NA,NA,66,"North America","Nearctic","Csb","Temperate mountain system",NA,"Luyssaert_2007_cbob",NA,"Sun et al 2004",1,"Luyssaert_2007_cbob","Kristina Anderson-Teixeira",0,"0",NA,"0",NA,TRUE,6.75416660308838,2390,14.6999998092651,0.899999976158142
135,"Battle Ax 3",NA,NA,NA,"NAC","Oregon","United States of America",44.8094,-122.2324,"NAC","900",NA,"NAC","NAC","NAC","NAC",NA,"loam","NAC","NAC","NAC","NAC",NA,NA,NA,66,"North America","Nearctic","Csb","Temperate mountain system",NA,"Luyssaert_2007_cbob",NA,"Sun et al 2004",1,"Luyssaert_2007_cbob","Maria",0,"0",NA,"0",NA,TRUE,6.75416660308838,2390,14.6999998092651,0.899999976158142
136,"Battle Ax 4",NA,NA,NA,"NAC","Oregon","United States of America",44.8285,-122.2429,"NAC","745",NA,"NAC","NAC","NAC","NAC",NA,"loam","NAC","NAC","NAC","NAC",NA,NA,NA,66,"North America","Nearctic","Csb","Temperate mountain system",NA,"Luyssaert_2007_cbob",NA,"Sun et al 2004",1,"Luyssaert_2007_cbob","Maria",0,"0",NA,"0",NA,TRUE,8.54166698455811,2178,16.6000003814697,2.09999990463257
137,"Battle Ax 5",NA,NA,NA,"NAC","Oregon","United States of America",44.836,-122.2246,"NAC","1027",NA,"NAC","NAC","NAC","NAC",NA,"loam","NAC","NAC","NAC","NAC",NA,NA,NA,66,"North America","Nearctic","Csb","Temperate mountain system",NA,"Luyssaert_2007_cbob",NA,"Sun et al 2004",1,"Luyssaert_2007_cbob","Maria",0,"0",NA,"0",NA,TRUE,7.72083330154419,2238,15.8000001907349,1.39999997615814
138,"Battle Ax 6",NA,NA,NA,"NAC","Oregon","United States of America",44.8386,-122.2342,"NAC","987",NA,"NAC","NAC","NAC","NAC",NA,"loam","NAC","NAC","NAC","NAC",NA,NA,NA,66,"North America","Nearctic","Csb","Temperate mountain system",NA,"Luyssaert_2007_cbob",NA,"Sun et al 2004",1,"Luyssaert_2007_cbob","Maria",0,"0",NA,"0",NA,TRUE,7.34166669845581,2312,15.3000001907349,1.29999995231628
139,"Baxi 1",NA,NA,NA,"Ruo'ergai","Sichuan","China",33.38,103.32,"NAC","NAC",NA,"2.7","NAC","NAC","776",NA,"NAC","NAC","NAC","NAC","NAC",NA,NA,NA,54,"Asia","Palearctic","Dwb","Temperate mountain system",NA,"Luo_1996_ponp",NA,"Liu_2014_htpa",NA,"Liu_2014_htpa","Maria",0,"0",NA,"0",NA,TRUE,0.516666650772095,716,9.39999961853027,-9.69999980926514
140,"Baxi 2",NA,NA,NA,"Ruo'ergai","Sichuan","China",33.53,103.34,"NAC","NAC",NA,"2.6","NAC","NAC","772",NA,"NAC","NAC","NAC","NAC","NAC",NA,NA,NA,54,"Asia","Palearctic","Dwb","Temperate mountain system",NA,"Luo_1996_ponp",NA,"Liu_2014_htpa",NA,"Liu_2014_htpa","Maria",0,"0",NA,"0",NA,TRUE,1.62916672229767,682,10.8000001907349,-9
141,"Baxi 3",NA,NA,NA,"Ruo'ergai","Sichuan","China",33.55,103.3,"NAC","NAC",NA,"2.6","NAC","NAC","767",NA,"NAC","NAC","NAC","NAC","NAC",NA,NA,NA,54,"Asia","Palearctic","Dwb","Temperate mountain system",NA,"Luo_1996_ponp",NA,"Liu_2014_htpa",NA,"Liu_2014_htpa","Maria",0,"0",NA,"0",NA,TRUE,1.42083334922791,688,10.5,-9.19999980926514
142,"Bayreuth/Weiden Brunnen",NA,NA,NA,"NAC","Bayern","Germany",50.15,11.87,"NAC","775",NA,"5.84","NAC","NAC","1037.17",NA,"clay loam","NAC","NAC","NAC","NAC",NA,NA,NA,67,"Europe","Palearctic","Cfb","Temperate oceanic forest",NA,"Buchmann_2000_baaf; CarboEurope-IP_2006_cd; Law_2002_ecoc; Mund_2002_gacs; Ruppert_2006_igsf; Valentini_2000_ratm",NA,"CD Carbodata",1,"Luyssaert_2007_cbob","Maria",37,"1;2;3;4",NA,"34",NA,TRUE,5.59166669845581,1098,14.5,-2.79999995231628
143,"BCI Putz & Milton",NA,NA,"Barro Colorado Island (BCI)","NAC","Colon","Panama",9.17,-79.85,"NAC","100",NA,"26.26","NAC","NAC","2912","Dry season length 3.54 mths","NAC","NAC","NAC","NAC","ultisol",NA,"terra firma",NA,7,"North America","Neotropics","Am","Tropical moist forest","469","Leigh_1999_tfea; Foster_1982_fobc; Taylor_2017_tari",NA,NA,NA,"Malhi_2004_tacw",NA,34,"1;2;3","NAC","31","may fall within Barro Colorado Island CTFS-ForestGEO plot",TRUE,26.3958339691162,2496,27.7000007629395,25.6000003814697
144,"BCI.poachers1",NA,NA,"?Barro Colorado Island (BCI)","NAC","Colon","Panama",9.28,-79.8,"other (see geography.notes)","NAC","coordinates suspect. BCI name and source (Leigh_1999_tfea) would imply that site should be on Barro Colorado Island, but coordinates are off BCI. Needs to be checked against original source.","NAC","NAC","NAC","2617","rainfall seasonality index SR (%) = 0.34","NAC","NAC","NAC","NAC","Acrisol",NA,"NAC",NA,7,"North America","Neotropics","Am","Tropical rainforest","1170","Leigh_1999_tfea",NA,NA,NA,"Chave_2010_rasp",NA,0,"0","NAC","0","coordinates may be off. Appears to be BCI",TRUE,26.220832824707,2500,27.5,25.2999992370605
145,"BCI.poachers2",NA,NA,"?Barro Colorado Island (BCI)","NAC","Colon","Panama",9.28,-79.8,"other (see geography.notes)","NAC","coordinates suspect. BCI name and source (Leigh_1999_tfea) would imply that site should be on Barro Colorado Island, but coordinates are off BCI. Needs to be checked against original source.","NAC","NAC","NAC","2617","rainfall seasonality index SR (%) = 0.34","NAC","NAC","NAC","NAC","Acrisol",NA,"NAC",NA,7,"North America","Neotropics","Am","Tropical rainforest","1171","Leigh_1999_tfea",NA,NA,NA,"Chave_2010_rasp",NA,0,"0","NAC","0","coordinates may be off. Appears to be BCI",TRUE,26.220832824707,2500,27.5,25.2999992370605
146,"BCI.poachers3",NA,NA,"?Barro Colorado Island (BCI)","NAC","Colon","Panama",9.28,-79.8,"other (see geography.notes)","NAC","coordinates suspect. BCI name and source (Leigh_1999_tfea) would imply that site should be on Barro Colorado Island, but coordinates are off BCI. Needs to be checked against original source.","NAC","NAC","NAC","2617","rainfall seasonality index SR (%) = 0.34","NAC","NAC","NAC","NAC","Acrisol",NA,"NAC",NA,7,"North America","Neotropics","Am","Tropical rainforest","1172","Leigh_1999_tfea",NA,NA,NA,"Chave_2010_rasp",NA,0,"0","NAC","0","coordinates may be off. Appears to be BCI",TRUE,26.220832824707,2500,27.5,25.2999992370605
147,"BCI.poachers4",NA,NA,"?Barro Colorado Island (BCI)","NAC","Colon","Panama",9.28,-79.8,"other (see geography.notes)","NAC","coordinates suspect. BCI name and source (Leigh_1999_tfea) would imply that site should be on Barro Colorado Island, but coordinates are off BCI. Needs to be checked against original source.","NAC","NAC","NAC","2617","rainfall seasonality index SR (%) = 0.34","NAC","NAC","NAC","NAC","Acrisol",NA,"NAC",NA,7,"North America","Neotropics","Am","Tropical rainforest","1173","Leigh_1999_tfea",NA,NA,NA,"Chave_2010_rasp",NA,0,"0","NAC","0","coordinates may be off. Appears to be BCI",TRUE,26.220832824707,2500,27.5,25.2999992370605
148,"BDFFP FASTIO",NA,NA,"Biological Dynamics of Forest Fragments Project (BDFFP)","Manaus","Amazonas","Brazil",-2.333333333,-60,"other (see geography.notes)","NAC","coordinates are approximate. Better location could be extracted from map in Lucas (1998)","NAC","NAC","NAC","2600",NA,"NAC","NAC","NAC","NAC","Latosol","yellow latsiols","NAC",NA,36,"South America","Neotropics","Af","Tropical rainforest","75","Lucas_1998_adcf","Laurence_2009_lvia",NA,NA,"Anderson_2006_toba",NA,39,"1","supersite","36",NA,TRUE,26.3208332061768,2414,27.2000007629395,25.8999996185303
149,"BDFFP Fazenda Agroman",NA,NA,"Biological Dynamics of Forest Fragments Project (BDFFP)","Manaus","Amazonas","Brazil",-2.333333333,-60,"other (see geography.notes)","NAC","coordinates are approximate. Better location could be extracted from map in Lucas (1998)","NAC","NAC","NAC","2600",NA,"NAC","NAC","NAC","NAC","Latosol","yellow latsiols","NAC",NA,36,"South America","Neotropics","Af","Tropical rainforest","80","Lucas_1998_adcf; Lucas_2002_froa","Laurence_2009_lvia",NA,NA,NA,NA,39,"2","supersite","36",NA,TRUE,26.3208332061768,2414,27.2000007629395,25.8999996185303
150,"BDFFP Fazenda Cabo Frio",NA,NA,"Biological Dynamics of Forest Fragments Project (BDFFP)","Manaus","Amazonas","Brazil",-2.4,-60,"NAC","100",NA,"26.75","NAC","NAC","2305","Dry season length 3.05 mths","NAC","NAC","NAC","NAC","Ultisol",NA,"terra firma",NA,36,"South America","Neotropics","Af","Tropical rainforest","101","Baker_2004_ibia; Clark_2001_nppi; Clark_2013_ntfc; Malhi_2004_tacw","Malhi_2004_tacw","Sizer 1992; Chambers, Pers. commun",NA,NA,NA,0,"0",NA,"0",NA,TRUE,26.3333339691162,2397,27.2000007629395,25.8999996185303
151,"BDFFP Fazenda Dimona",NA,NA,"Biological Dynamics of Forest Fragments Project (BDFFP)","Manaus","Amazonas","Brazil",-2.33333,-60.083333,"NAC","100",NA,"26.75","NAC","NAC","2305","Dry season length 3.05 mths; rainfall seasonality index SR (%) = 0.49","clay","NAC","NAC","NAC","Ultisol/older oxisol/ Ferralsol",NA,"terra firma",NA,36,"South America","Neotropics","Af","Tropical rainforest","99","Baker_2004_ibia; Chave_2010_rasp; Clark_2001_nppi; Clark_2013_ntfc; Lucas_2002_froa; Malhi_2004_tacw; Malhi_2011_taoe; Vieira_2004_fsac","Clark_2001_nppi; Malhi_2004_tacw","Chambers, Pers. Commun; ttp://pdbff.inpa.gov.br/area3p.htm#",NA,NA,NA,40,"1","supersite","37",NA,TRUE,26.4624996185303,2415,27.2999992370605,26
152,"BDFFP Fazenda Esteio",NA,NA,"Biological Dynamics of Forest Fragments Project (BDFFP)","Manaus","Amazonas","Brazil",-2.41667,-59.76667,"other (see geography.notes)","NAC","coordinates are approximate. Better location could be extracted from map in Lucas (1998)","NAC","NAC","NAC","2600",NA,"NAC","NAC","NAC","NAC","Latosol","yellow latsiols","NAC",NA,36,"South America","Neotropics","Af","Tropical rainforest","78","Lucas_1998_adcf; Lucas_2002_froa","Laurence_2009_lvia",NA,NA,NA,NA,41,"1","NAC","38","needs review",TRUE,26.4458332061768,2372,27.2999992370605,25.8999996185303
153,"BDFFP Fazenda Gaviao",NA,NA,"Biological Dynamics of Forest Fragments Project (BDFFP)","Manaus","Amazonas","Brazil",-2.4,-59.9,"NAC","100",NA,"26.7","NAC","NAC","2233.5","Dry season length 3.05 mths","NAC","NAC","NAC","NAC","Ultisol",NA,"terra firma",NA,36,"South America","Neotropics","Af","Tropical rainforest","102","Baker_2004_ibia; Clark_2001_nppi; Clark_2013_ntfc; Malhi_2004_tacw","Malhi_2004_tacw","Chambers, Pers. commun",NA,NA,NA,42,"1;2","supersite","39",NA,TRUE,26.3291664123535,2389,27.2000007629395,25.7999992370605
154,"BDFFP Fazenda Maringa",NA,NA,"Biological Dynamics of Forest Fragments Project (BDFFP)","Manaus","Amazonas","Brazil",-2.333333333,-60,"other (see geography.notes)","NAC","coordinates are approximate. Better location could be extracted from map in Lucas (1998)","NAC","NAC","NAC","2600",NA,"NAC","NAC","NAC","NAC","Latosol","yellow latsiols","NAC",NA,36,"South America","Neotropics","Af","Tropical rainforest","76","Lucas_1998_adcf; Lucas_2002_froa","Laurence_2009_lvia",NA,NA,NA,NA,39,"3","supersite","36",NA,TRUE,26.3208332061768,2414,27.2000007629395,25.8999996185303
155,"BDFFP Fazenda Porto Alegre",NA,NA,"Biological Dynamics of Forest Fragments Project (BDFFP)","Manaus","Amazonas","Brazil",-2.348,-60,"other (see geography.notes)","NAC","coordinates are approximate. Better location could be extracted from map in Lucas (1998)","NAC","NAC","NAC","2524",NA,"NAC","NAC","NAC","NAC","Latosol","yellow latsiols","terra firma",NA,36,"South America","Neotropics","Af","Tropical rainforest","77","Lucas_1998_adcf; Lucas_2002_froa","Laurence_2009_lvia",NA,NA,NA,NA,39,"4","supersite","36",NA,TRUE,26.3541660308838,2411,27.2000007629395,25.8999996185303
156,"BDFFP Fazenda Porto Alegre 3304",NA,NA,"Biological Dynamics of Forest Fragments Project (BDFFP)","Manaus","Amazonas","Brazil",-2.348,-60,"NAC","90",NA,"27.2","NAC","NAC","1771","Dry season length 3.05 mths","NAC","NAC","NAC","NAC","Latosol",NA,"terra firma",NA,36,"South America","Neotropics","Af","Tropical rainforest","86","Baker_2004_ibia; Clark_2001_nppi; Clark_2013_ntfc; Malhi_2004_tacw","Klinge_1975_basi","additional refs: Klinge 1973,1976,1978; Klinge & Rodrigues 1968",NA,NA,NA,39,"1;2;3;4;5","supersite","36",NA,TRUE,26.3541660308838,2411,27.2000007629395,25.8999996185303
157,"BDFFP Florestal",NA,NA,"Biological Dynamics of Forest Fragments Project (BDFFP)","Manaus","Amazonas","Brazil",-2.4,-59.9,"NAC","100",NA,"26.8","NAC","NAC","2305","Dry season length 3.05 mths","NAC","NAC","NAC","NAC","older oxisol",NA,"terra firma",NA,36,"South America","Neotropics","Af","Tropical rainforest","104","Baker_2004_ibia; Malhi_2004_tacw","Malhi_2004_tacw",NA,NA,NA,NA,42,"1;2","supersite","39",NA,TRUE,26.3291664123535,2389,27.2000007629395,25.7999992370605
158,"BDFFP km 67",NA,NA,"Biological Dynamics of Forest Fragments Project (BDFFP)","Manaus","Amazonas","Brazil",-2.333333333,-60,"other (see geography.notes)","NAC","coordinates are approximate. Better location could be extracted from map in Lucas (1998)","NAC","NAC","NAC","2600",NA,"NAC","NAC","NAC","NAC","Latosol","yellow latsiols","NAC",NA,36,"South America","Neotropics","Af","Tropical rainforest","79","Lucas_1998_adcf; Lucas_2002_froa","Laurence_2009_lvia",NA,NA,NA,NA,39,"5","supersite","36",NA,TRUE,26.3208332061768,2414,27.2000007629395,25.8999996185303
159,"BDFFP Reserve",NA,NA,"Biological Dynamics of Forest Fragments Project (BDFFP)","Manaus","Amazonas","Brazil",-2.5,-60,"NAC","NAC",NA,"NAC","NAC","NAC","2470","rainfall seasonality index SR (%) = 0.32","NAC","NAC","NAC","NAC","Ferralsol",NA,"NAC",NA,36,"South America","Neotropics","Af","Tropical rainforest","1174","Chave_2010_rasp; Malhi_2004_tacw; Vasconcelos_2004_lpal; Vieira_2004_fsac",NA,NA,NA,"Chave_2010_rasp",NA,43,"1","NAC","40","needs review",TRUE,26.3374996185303,2386,27.2000007629395,25.7999992370605
160,"Bebedero",NA,NA,NA,"NAC","Guanacaste","Costa Rica",10.8883,-85.6,"decimal degrees to 4 digits","280",NA,"25.9","NAC","NAC","1613",NA,"NAC","NAC","NAC","NAC","Entisol",NA,"NAC",NA,68,"North America","Neotropics","Aw","Tropical dry forest","1261","Cifuentes-Jara_2008_abae",NA,NA,NA,"Bonner_2013_amgc",NA,44,"1","1","41",NA,TRUE,25.8916664123535,1701,27.2999992370605,25
161,"Belgium",NA,NA,NA,"NAC","Antwerp","Belgium",51.17,5,"NAC","NI",NA,"8.6","NAC","NAC","850",NA,"loam","NAC","NAC","NAC","NAC",NA,NA,NA,69,"Europe","Palearctic","Cfb","Temperate oceanic forest",NA,"Esser_1997_weab","Esser_1997_weab","Esser et al 1997 obs_1043,",1,"Luyssaert_2007_cbob","Maria",0,"0",NA,"0",NA,TRUE,10.4458332061768,789,18.2999992370605,3.20000004768372
162,"Belt Woods",NA,NA,NA,"NAC","Maryland","United States of America",38.906743,-76.7604,"NAC","NAC",NA,"NAC","NAC","NAC","NAC",NA,"NAC","NAC","NAC","NAC","NAC",NA,NA,NA,70,"North America","Nearctic","Cfa","Subtropical humid forest",NA,"McGarvey_2015_csio",NA,NA,NA,NA,"Maria",0,"0",NA,"0",NA,TRUE,13.0999994277954,1110,24.8999996185303,0.600000023841858
163,"Bhabar Shisham plantation chronosequence",NA,NA,NA,"NAC","Nainital","India",29.17,79.36,"NAC","NAC",NA,"23.3333","4.5","25.4","1415",NA,"sandy loam","NAC","NAC","NAC","NAC","The soil is coarse textured and nutrient poor with low water table.",NA,NA,71,"Asia","IndoMalay","Cwa","Tropical moist forest",NA,"Lodhiyal_2003_banp",NA,NA,NA,"Anderson_2006_toba",NA,0,"0",NA,"0",NA,TRUE,24.095832824707,1687,31.2999992370605,14.5
164,"Bianba",NA,NA,NA,"Changdu","Tibet","China",30.9,94.7,"NAC","NAC",NA,"1","NAC","NAC","527",NA,"NAC","NAC","NAC","NAC","NAC",NA,NA,NA,72,"Asia","Palearctic","ET","Subtropical mountain system",NA,"Luo_1996_ponp",NA,"Liu_2014_htpa",NA,"Liu_2014_htpa","Maria",0,"0",NA,"0",NA,TRUE,1.05416667461395,650,9.80000019073486,-8.80000019073486
165,"Big Butte Springs 1",NA,NA,NA,"NAC","Oregon","United States of America",42.5853,-122.4062,"NAC","1026",NA,"NAC","NAC","NAC","NAC",NA,"clay loam","NAC","NAC","NAC","NAC",NA,NA,NA,73,"North America","Nearctic","Csb","Temperate mountain system",NA,"Luyssaert_2007_cbob",NA,"Sun et al 2004",1,"Luyssaert_2007_cbob","Maria",0,"0",NA,"0",NA,TRUE,8.94999980926514,902,18.1000003814697,1.20000004768372
166,"Big Butte Springs 2",NA,NA,NA,"NAC","Oregon","United States of America",42.586,-122.4478,"NAC","931",NA,"NAC","NAC","NAC","NAC",NA,"clay loam","NAC","NAC","NAC","NAC",NA,NA,NA,73,"North America","Nearctic","Csb","Temperate mountain system",NA,"Luyssaert_2007_cbob",NA,"Sun et al 2004",1,"Luyssaert_2007_cbob","Maria",0,"0",NA,"0",NA,TRUE,9.61250019073486,886,18.8999996185303,1.70000004768372
167,"Big Butte Springs 3",NA,NA,NA,"NAC","Oregon","United States of America",42.5601,-122.4966,"NAC","834",NA,"NAC","NAC","NAC","NAC",NA,"clay loam","NAC","NAC","NAC","NAC",NA,NA,NA,73,"North America","Nearctic","Csb","Temperate mountain system",NA,"Luyssaert_2007_cbob",NA,"Sun et al 2004",1,"Luyssaert_2007_cbob","Maria",0,"0",NA,"0",NA,TRUE,10.0333337783813,873,19.2000007629395,2.09999990463257
168,"Big Butte Springs 4",NA,NA,NA,"NAC","Oregon","United States of America",42.6231,-122.4367,"NAC","1024",NA,"NAC","NAC","NAC","NAC",NA,"clay loam","NAC","NAC","NAC","NAC",NA,NA,NA,73,"North America","Nearctic","Csb","Temperate mountain system",NA,"Luyssaert_2007_cbob",NA,"Sun et al 2004",1,"Luyssaert_2007_cbob","Maria",0,"0",NA,"0",NA,TRUE,9.08749961853027,938,18.2999992370605,1.29999995231628
169,"Big Butte Springs 5",NA,NA,NA,"NAC","Oregon","United States of America",42.5791,-122.4414,"NAC","938",NA,"NAC","NAC","NAC","NAC",NA,"clay loam","NAC","NAC","NAC","NAC",NA,NA,NA,73,"North America","Nearctic","Csb","Temperate mountain system",NA,"Luyssaert_2007_cbob",NA,"Sun et al 2004",1,"Luyssaert_2007_cbob","Maria",0,"0",NA,"0",NA,TRUE,9.51249980926514,880,18.7999992370605,1.60000002384186
170,"Big Butte Springs 6",NA,NA,NA,"NAC","Oregon","United States of America",42.6025,-122.4755,"NAC","969",NA,"NAC","NAC","NAC","NAC",NA,"clay loam","NAC","NAC","NAC","NAC",NA,NA,NA,73,"North America","Nearctic","Csb","Temperate mountain system",NA,"Luyssaert_2007_cbob",NA,"Sun et al 2004",1,"Luyssaert_2007_cbob","Maria",0,"0",NA,"0",NA,TRUE,9.39999961853027,945,18.3999996185303,1.79999995231628
171,"Biliuti 1",NA,NA,NA,"Bu'erjin","Xinjiang","China",47.7,86.9,"NAC","NAC",NA,"-2.1","NAC","NAC","672",NA,"NAC","NAC","NAC","NAC","NAC",NA,NA,NA,74,"Asia","Palearctic","BSk","Temperate desert",NA,"Luo_1996_ponp",NA,"Liu_2014_htpa",NA,"Liu_2014_htpa","Maria",0,"0",NA,"0",NA,TRUE,5.625,202,23.3999996185303,-14.3999996185303
172,"Biliuti 2",NA,NA,NA,"Bu'erjin","Xinjiang","China",48,86.9,"NAC","NAC",NA,"-3.5","NAC","NAC","863",NA,"NAC","NAC","NAC","NAC","NAC",NA,NA,NA,75,"Asia","Palearctic","BSk","Temperate desert",NA,"Luo_1996_ponp",NA,"Liu_2014_htpa",NA,"Liu_2014_htpa","Maria",0,"0",NA,"0",NA,TRUE,5.02500009536743,241,23,-14
173,"Bilos",NA,NA,NA,"NAC","Gironde","France",44.493889,-0.955944,"NAC","NI",NA,"12.8","NAC","NAC","930",NA,"sandy loam","NAC","NAC","NAC","NAC",NA,NA,NA,76,"Europe","Palearctic","Cfb","Temperate oceanic forest",NA,"Hibbard_2005_aaos; Kowalski_2003_tacb; Kowalski_2004_pcoc","Kowalski_2003_tacb; Kowalski_2004_pcoc",NA,1,"Luyssaert_2007_cbob","Maria",0,"0",NA,"0",NA,TRUE,12.7541666030884,937,19.7000007629395,6
174,"Bilos Clear",NA,NA,NA,"NAC","Lot-et-Garonne","France",44.495278,0.9525,"NAC","NI",NA,"12.8","NAC","NAC","930",NA,"clay loam","NAC","NAC","NAC","NAC",NA,NA,NA,77,"Europe","Palearctic","Cfb","Temperate oceanic forest",NA,"Kowalski_2003_tacb; Kowalski_2004_pcoc; Luyssaert_2007_cbob","Kowalski_2003_tacb; Kowalski_2004_pcoc",NA,1,"Luyssaert_2007_cbob","Maria",0,"0",NA,"0",NA,TRUE,12.8208332061768,905,20.8999996185303,5.5
175,"Bily Kriz Forest","FluxNet",NA,NA,"NAC","Moravskoslezsky Kraj","Czech Republic",49.5,18.54,"NAC","908",NA,"7.87","NAC","NAC","1244",NA,"clay loam","NAC","NAC","NAC","NAC",NA,NA,NA,78,"Europe","Palearctic","Dfb","Temperate mountain system",NA,"CarboEurope-IP_2006_cd; FLUXNET2015_2015_fcb","CarboEurope-IP_2006_cd",NA,1,"Luyssaert_2007_cbob","Maria",0,"0",NA,"0",NA,TRUE,5.09583330154419,1044,14.1999998092651,-4.19999980926514
176,"Biology of Forest Growth experimental plantation in Pierces Creek Forest",NA,NA,NA,"Canberra","Australian Capital Territory","Australia",-35.35,148.933,"NAC","630",NA,"13.5","NAC","NAC","791",NA,"clay loam","NAC","NAC","NAC","NAC",NA,NA,NA,79,"Australia","Australasia","Cfb","Temperate mountain system",NA,"Ryan_1996_ffwa","Ryan_1996_ffwa",NA,1,"Luyssaert_2007_cbob","Maria",0,"0",NA,"0",NA,TRUE,12.7624998092651,888,19.8999996185303,5.30000019073486
177,"Bionte (Luizao)",NA,NA,NA,"NAC","Amazonas","Brazil",-2.63,-60.17,"NAC","73",NA,"27.08","NAC","NAC","2272",NA,"NAC","NAC","NAC","NAC","NAC",NA,"NAC",NA,36,"South America","Neotropics","Af","Tropical rainforest","1377","Malhi_2011_taoe",NA,"Luizao 1989 [69]",NA,"Malhi_2011_taoe",NA,49,"1","NAC","46",NA,TRUE,26.3583335876465,2358,27.2000007629395,25.8999996185303
178,"Bionte 1",NA,NA,NA,"Manaus","Amazonas","Brazil",-2.63,-60.17,"NAC","73",NA,"27.1","NAC","NAC","2381","Dry season length 3 mths","NAC","NAC","NAC","NAC","older oxisol",NA,"terra firma",NA,36,"South America","Neotropics","Af","Tropical rainforest","105","Baker_2004_ibia; Chambers_2000_dacc; Malhi_2004_tacw",NA,NA,NA,NA,NA,49,"1;2","NAC","46",NA,TRUE,26.3583335876465,2358,27.2000007629395,25.8999996185303
179,"Bionte 2",NA,NA,NA,"Manaus","Amazonas","Brazil",-2.63,-60.17,"NAC","73",NA,"27.1","NAC","NAC","2381","Dry season length 3 mths","NAC","NAC","NAC","NAC","older oxisol",NA,"terra firma",NA,36,"South America","Neotropics","Af","Tropical rainforest","106","Baker_2004_ibia; Chambers_2000_dacc; Malhi_2004_tacw",NA,NA,NA,NA,NA,49,"1;2","NAC","46",NA,TRUE,26.3583335876465,2358,27.2000007629395,25.8999996185303
180,"Bionte 4",NA,NA,NA,"Manaus","Amazonas","Brazil",-2.63,-60.17,"NAC","73",NA,"27.1","NAC","NAC","2381","Dry season length 3 mths","NAC","NAC","NAC","NAC","older oxisol",NA,"terra firma",NA,36,"South America","Neotropics","Af","Tropical rainforest","107","Baker_2004_ibia; Chambers_2000_dacc; Malhi_2004_tacw",NA,NA,NA,NA,NA,49,"1;2","NAC","46",NA,TRUE,26.3583335876465,2358,27.2000007629395,25.8999996185303
181,"Bionte averaged (Chao2009)",NA,NA,NA,"NAC","Amazonas","Brazil",-2.63,-60.17,"NAC","NAC",NA,"NAC","NAC","NAC","NAC",NA,"NAC","NAC","NAC","NAC","NAC",NA,"NAC",NA,36,"South America","Neotropics","Af","Tropical rainforest","1420","Chambers_2000_dacc",NA,"Summers (1998) cited in Chambers et al. (2000)",NA,"Chao_2009_atdq",NA,49,"1;2","NAC","46",NA,TRUE,26.3583335876465,2358,27.2000007629395,25.8999996185303
182,"Bionte T4 B1 SB3",NA,NA,NA,"Manaus","Amazonas","Brazil",-2.63,-60.17,"NAC","73",NA,"27.1","NAC","NAC","2381","Dry season length 3 mths","NAC","NAC","NAC","NAC","older oxisol",NA,"terra firma",NA,36,"South America","Neotropics","Af","Tropical rainforest","108","Baker_2004_ibia; Malhi_2004_tacw",NA,NA,NA,NA,NA,49,"1;2","NAC","46",NA,TRUE,26.3583335876465,2358,27.2000007629395,25.8999996185303
183,"Bionte T4 B2 SB1",NA,NA,NA,"Manaus","Amazonas","Brazil",-2.63,-60.17,"NAC","73",NA,"27.1","NAC","NAC","2381","Dry season length 3 mths","NAC","NAC","NAC","NAC","older oxisol",NA,"terra firma",NA,36,"South America","Neotropics","Af","Tropical rainforest","110","Baker_2004_ibia; Malhi_2004_tacw",NA,NA,NA,NA,NA,49,"1;2","NAC","46",NA,TRUE,26.3583335876465,2358,27.2000007629395,25.8999996185303
184,"Bionte T4 B4 SB4",NA,NA,NA,"Manaus","Amazonas","Brazil",-2.63,-60.17,"NAC","73",NA,"27.1","NAC","NAC","2381","Dry season length 3 mths","NAC","NAC","NAC","NAC","older oxisol",NA,"terra firma",NA,36,"South America","Neotropics","Af","Tropical rainforest","109","Baker_2004_ibia; Malhi_2004_tacw",NA,NA,NA,NA,NA,49,"1;2","NAC","46",NA,TRUE,26.3583335876465,2358,27.2000007629395,25.8999996185303
185,"Luquillo Experimental Forest: Bisley watersheds 1 and 2",NA,NA,"Luquillo","NAC","Puerto Rico","United States of America",18.32,-65.82,"NAC","355","elevation 260-450. steep, highly dissected","NAC","NAC","NAC","3500","3000-4000 mm yr-1","NAC","NAC","NAC","NAC","NAC",NA,"NAC","Secondary tabonuco forest",80,"North America","Neotropics","Am","Tropical rainforest","360","Scatena_1993_banc; Scatena_1996_tffy","Scatena_1996_tffy",NA,NA,NA,NA,50,"1;2","NAC","47",NA,TRUE,23.2041664123535,2123,24.7999992370605,21.2999992370605
186,"Bissiga B12",NA,NA,NA,"NAC","Oubritenga","Burkina Faso",12.6833,-1.1667,"NAC","300",NA,"NAC","16","40","632","dry season 5-7 months","NAC","NAC","NAC","NAC","ferric luvisol","ferric luvisol, ferruginous","NAC",NA,81,"Africa","Afrotropics","BSh","Tropical dry forest","322","Nygard_2004_wyis",NA,NA,NA,NA,NA,0,"0",NA,"0",NA,TRUE,28.4458332061768,686,32.5999984741211,24.6000003814697
187,"Bitagron",NA,NA,NA,"NAC","Sipaliwini","Suriname",5.079,-56.201,"NAC","NAC",NA,"NAC","NAC","NAC","2151",NA,"NAC","NAC","NAC","NAC","NAC",NA,"NAC",NA,82,"South America","Neotropics","Af","Tropical rainforest","1369","Poorter_2015_decs",NA,NA,NA,NA,NA,0,"0",NA,"0",NA,TRUE,26.6208343505859,2167,27.7000007629395,25.7999992370605
188,"BKK-01a_Boukoko",NA,NA,NA,"NAC","Lobaye","Central African Republic",3.83,18,"NAC","487",NA,"23.7","NAC","NAC","1677",NA,"NAC","NAC","NAC","NAC","NAC",NA,"NAC",NA,83,"Africa","Afrotropics","Aw","Tropical rainforest","211","Lewis_2009_icsi",NA,NA,NA,"Lewis2009; Liu_2014_htpa",NA,0,"0",NA,"0",NA,TRUE,24.0166664123535,1640,24.8999996185303,23.1000003814697
189,"Black Rock Forest Chronosequence",NA,NA,NA,"NAC","New York","United States of America",41.4,-74.017,"NAC","280",NA,"10.57","-2.7","23.4","1206",NA,"loam","NAC","NAC","NAC","NAC",NA,NA,NA,84,"North America","Nearctic","Dfa","Temperate mountain system",NA,"Xu_2012_ados",NA,NA,NA,NA,NA,0,"0",NA,"0",NA,TRUE,8.92500019073486,1329,21.2999992370605,-4.09999990463257
190,"Black Spruce Muskeg, Site 1",NA,NA,NA,"NAC","Alaska","United States of America",64,-148,"degree","166.7",NA,"-3.441666921","NAC","NAC","376",NA,"NAC","NAC","NAC","NAC","Inceptisol","Inceptisol. Pergelic Cryaquept.",NA,NA,85,"North America","Nearctic","Dfc","Boreal mountain system",NA,"DeAngelis_1981_pofe",NA,NA,NA,"Anderson_2006_toba",NA,0,"0",NA,"0",NA,TRUE,-5.01666688919067,368,10.1999998092651,-17.3999996185303
191,"Black Spruce Muskeg, Site 2",NA,NA,NA,"NAC","Alaska","United States of America",64,-148,"degree","469.7",NA,"-3.441666921","NAC","NAC","376",NA,"NAC","NAC","NAC","NAC","Inceptisol","Inceptisol. Pergelic Cryaquept.",NA,NA,85,"North America","Nearctic","Dfc","Boreal mountain system",NA,"DeAngelis_1981_pofe",NA,NA,NA,"Anderson_2006_toba",NA,0,"0",NA,"0",NA,TRUE,-5.01666688919067,368,10.1999998092651,-17.3999996185303
192,"Black Spruce-Feather Moss Site",NA,NA,NA,"NAC","Alaska","United States of America",64,-148,"degree","NAC",NA,"-3.441666921","NAC","NAC","376",NA,"NAC","NAC","NAC","NAC","Inceptisol","Inceptisol. Pergelic Cryaquept.",NA,NA,85,"North America","Nearctic","Dfc","Boreal mountain system",NA,"DeAngelis_1981_pofe",NA,NA,NA,"Anderson_2006_toba",NA,0,"0",NA,"0",NA,TRUE,-5.01666688919067,368,10.1999998092651,-17.3999996185303
193,"Blodgett Forest","FluxNet",NA,NA,"NAC","California","United States of America",38.88,-120.61,"NAC","1315",NA,"11.45","NAC","NAC","1540.33",NA,"clay loam","NAC","NAC","NAC","NAC",NA,NA,NA,86,"North America","Nearctic","Csb","Subtropical mountain system",NA,"Falge_2002_soer; Goldstein_2015_fub; Misson_2005_iorf; Xu_2003_svic","Misson_2005_iorf; Law_2002_ecoc",NA,1,"Luyssaert_2007_cbob","Maria",0,"0",NA,"0",NA,TRUE,10.8666667938232,1487,20.2000007629395,3.90000009536743
194,"Blue Mountain 1",NA,NA,NA,"NAC","Oregon","United States of America",43.6776,-122.916,"NAC","654",NA,"NAC","NAC","NAC","NAC",NA,"clay loam","NAC","NAC","NAC","NAC",NA,NA,NA,87,"North America","Nearctic","Csb","Temperate mountain system",NA,"Luyssaert_2007_cbob",NA,"Sun et al 2004",1,"Luyssaert_2007_cbob","Maria",0,"0",NA,"0",NA,TRUE,9.89999961853027,1791,17.3999996185303,3.79999995231628
195,"Blue Mountain 2",NA,NA,NA,"NAC","Oregon","United States of America",43.7362,-122.9288,"NAC","449",NA,"NAC","NAC","NAC","NAC",NA,"clay loam","NAC","NAC","NAC","NAC",NA,NA,NA,87,"North America","Nearctic","Csb","Temperate mountain system",NA,"Luyssaert_2007_cbob",NA,"Sun et al 2004",1,"Luyssaert_2007_cbob","Maria",0,"0",NA,"0",NA,TRUE,10.5124998092651,1558,18.2000007629395,3.90000009536743
196,"Blue Mountain 3",NA,NA,NA,"NAC","Oregon","United States of America",43.6915,-122.9297,"NAC","543",NA,"NAC","NAC","NAC","NAC",NA,"clay loam","NAC","NAC","NAC","NAC",NA,NA,NA,87,"North America","Nearctic","Csb","Temperate mountain system",NA,"Luyssaert_2007_cbob",NA,"Sun et al 2004",1,"Luyssaert_2007_cbob","Maria",0,"0",NA,"0",NA,TRUE,10.5666666030884,1575,18.1000003814697,4.09999990463257
197,"Blue Mountain 4",NA,NA,NA,"NAC","Oregon","United States of America",43.6943,-122.8992,"NAC","803",NA,"NAC","NAC","NAC","NAC",NA,"clay loam","NAC","NAC","NAC","NAC",NA,NA,NA,87,"North America","Nearctic","Csb","Temperate mountain system",NA,"Luyssaert_2007_cbob",NA,"Sun et al 2004",1,"Luyssaert_2007_cbob","Maria",0,"0",NA,"0",NA,TRUE,9.80833339691162,1792,17.3999996185303,3.59999990463257
198,"Blue Mountain 5",NA,NA,NA,"NAC","Oregon","United States of America",43.7037,-122.9292,"NAC","876",NA,"NAC","NAC","NAC","NAC",NA,"clay loam","NAC","NAC","NAC","NAC",NA,NA,NA,87,"North America","Nearctic","Csb","Temperate mountain system",NA,"Luyssaert_2007_cbob",NA,"Sun et al 2004",1,"Luyssaert_2007_cbob","Maria",0,"0",NA,"0",NA,TRUE,9.42083358764648,1910,17.1000003814697,3.40000009536743
199,"Blue Mountain 6",NA,NA,NA,"NAC","Oregon","United States of America",43.7062,-122.9356,"NAC","704",NA,"NAC","NAC","NAC","NAC",NA,"clay loam","NAC","NAC","NAC","NAC",NA,NA,NA,87,"North America","Nearctic","Csb","Temperate mountain system",NA,"Luyssaert_2007_cbob",NA,"Sun et al 2004",1,"Luyssaert_2007_cbob","Maria",0,"0",NA,"0",NA,TRUE,9.94166660308838,1775,17.6000003814697,3.70000004768372
200,"Blue Mtn. Mor Ridge",NA,NA,NA,"NAC","Saint Andrew","Jamaica",18.08,-76.65,"NAC","1615","montane","15.8","NAC","NAC","2230",NA,"NAC","NAC","NAC","NAC","NAC","mor","NAC","Tropical montane",88,"North America","Neotropics","Aw","Tropical mountain system","340","Clark_2013_ntfc; Tanner_1980_sotb",NA,"Tanner 1977, 1980a,b,1985",NA,NA,NA,55,"1","1","52",NA,TRUE,17.1041660308838,2322,18.3999996185303,15.3999996185303
201,"Blue Mtn. Mull Ridge",NA,NA,NA,"NAC","Saint Andrew","Jamaica",18.08,-76.65,"NAC","1600","montane","15.5","NAC","NAC","2230",NA,"NAC","NAC","NAC","NAC","NAC",NA,"NAC","Tropical montane",88,"North America","Neotropics","Aw","Tropical mountain system","341","Clark_2013_ntfc; Tanner_1980_sotb",NA,"Tanner 1977, 1980a,b,1985",NA,NA,NA,55,"1","1","52",NA,TRUE,17.1041660308838,2322,18.3999996185303,15.3999996185303
202,"Blue Mtn.Gap Forest",NA,NA,NA,"NAC","Saint Andrew","Jamaica",18.08,-76.65,"NAC","1590","montane","15.5","NAC","NAC","2230",NA,"NAC","NAC","NAC","NAC","NAC",NA,"NAC","Tropical montane",88,"North America","Neotropics","Aw","Tropical mountain system","342","Clark_2013_ntfc; Tanner_1980_sotb",NA,"Tanner 1977, 1980a,b,1985",NA,NA,NA,55,"1","1","52",NA,TRUE,17.1041660308838,2322,18.3999996185303,15.3999996185303
203,"Blue Mtn.Wet Slope Forest",NA,NA,NA,"NAC","Saint Andrew","Jamaica",18.08,-76.65,"NAC","1570","montane","15.3","NAC","NAC","2230",NA,"NAC","NAC","NAC","NAC","NAC",NA,"NAC","Tropical montane",88,"North America","Neotropics","Aw","Tropical mountain system","343","Clark_2013_ntfc; Tanner_1980_sotb",NA,"Tanner 1977, 1980a,b,1985",NA,NA,NA,55,"1","1","52",NA,TRUE,17.1041660308838,2322,18.3999996185303,15.3999996185303
204,"Bogi 1 (PA)",NA,NA,NA,"NAC","Orellana","Ecuador",-0.7,-76.48,"NAC","271",NA,"24.9","NAC","NAC","3152","Dry season length 0.31 mths","NAC","NAC","NAC","NAC","inceptisol",NA,"terra firma",NA,38,"South America","Neotropics","Af","Tropical rainforest","125","Baker_2004_ibia; Malhi_2004_tacw",NA,NA,NA,NA,NA,56,"1","1","53",NA,TRUE,25.0166664123535,3384,25.6000003814697,24.1000003814697
205,"Bogi 2 (PB)",NA,NA,NA,"NAC","Orellana","Ecuador",-0.7,-76.47,"NAC","270",NA,"25","NAC","NAC","3140","Dry season length 0.31 mths","NAC","NAC","NAC","NAC","inceptisol",NA,"terra firma",NA,38,"South America","Neotropics","Af","Tropical rainforest","126","Baker_2004_ibia; Malhi_2004_tacw",NA,NA,NA,NA,NA,56,"1","1","53",NA,TRUE,25.0249996185303,3382,25.6000003814697,24.1000003814697
206,"Bomi Cupressus, Sabina",NA,NA,NA,"Changdu","Tibet","China",30.1,95,"NAC","NAC",NA,"11.2","NAC","NAC","582",NA,"NAC","NAC","NAC","NAC","NAC",NA,NA,NA,89,"Asia","Palearctic","Dwb","Subtropical mountain system",NA,"Luo_1996_ponp",NA,"Liu_2014_htpa",NA,"Liu_2014_htpa","Maria",0,"0",NA,"0",NA,TRUE,3.04999995231628,665,11.1000003814697,-5.59999990463257
207,"Bomi Picea, Abies 1",NA,NA,NA,"NAC","Tibet","China",29.92,95.88,"NAC","NAC",NA,"9","NAC","NAC","850",NA,"NAC","NAC","NAC","NAC","NAC",NA,NA,NA,90,"Asia","Palearctic","Dwc","Subtropical mountain system",NA,"Feng_1999_fbap",NA,"Liu_2014_htpa",NA,"Liu_2014_htpa","Maria",0,"0",NA,"0",NA,TRUE,-3.44583344459534,655,5.19999980926514,-12.8000001907349
208,"Bomi Picea, Abies 2",NA,NA,NA,"Changdu","Tibet","China",29.8,95.7,"NAC","NAC",NA,"6.6","NAC","NAC","850",NA,"NAC","NAC","NAC","NAC","NAC",NA,NA,NA,90,"Asia","Palearctic","Dwc","Subtropical mountain system",NA,"Luo_1996_ponp",NA,"Liu_2014_htpa",NA,"Liu_2014_htpa","Maria",0,"0",NA,"0",NA,TRUE,2.16250014305115,700,10.3000001907349,-7.09999990463257
209,"Bomi Quercus 1",NA,NA,NA,"Changdu","Tibet","China",29.7,96.1,"NAC","NAC",NA,"6.4","NAC","NAC","850",NA,"NAC","NAC","NAC","NAC","NAC",NA,NA,NA,91,"Asia","Palearctic","ET","Subtropical mountain system",NA,"Luo_1996_ponp",NA,"Liu_2014_htpa",NA,"Liu_2014_htpa","Maria",0,"0",NA,"0",NA,TRUE,3.04166650772095,719,11,-6
210,"Bomi Quercus 2",NA,NA,NA,"Changdu","Tibet","China",29.8,95.7,"NAC","NAC",NA,"7.7","NAC","NAC","850",NA,"NAC","NAC","NAC","NAC","NAC",NA,NA,NA,90,"Asia","Palearctic","Dwc","Subtropical mountain system",NA,"Luo_1996_ponp",NA,"Liu_2014_htpa",NA,"Liu_2014_htpa","Maria",0,"0",NA,"0",NA,TRUE,2.16250014305115,700,10.3000001907349,-7.09999990463257
211,"Bonanza 5A","LTER","BNZ LTER-5A","Bonanza Creek ","Fairbanks","Alaska","United States of America",64.8,-147.87,"other (see geography.notes)","133","coordinates imprecise. ""along the floodplain of the Tanana River, ~30km southwest of Fairbanks, Alaska (64deg48min N, 147deg52min W)","-3.5","NAC","NAC","269",NA,"clay loam","NAC","NAC","NAC","Pergelic Cryaquepts","Pergelic Cryaquepts","Soil Drainage:  Wet",NA,12,"North America","Nearctic","Dfc","Boreal tundra woodland",NA,"Ruess_2003_cfrd","Ruess_2003_cfrd",NA,1,"Luyssaert_2007_cbob; Bond-Lamberty_2004_corr","Maria;R script: Bond-Lamberty",58,"1","1","55","probably unique",TRUE,-2.92499995231628,305,16.2999992370605,-22.7999992370605
212,"Bonanza 5C","LTER","BNZ LTER-5C","Bonanza Creek ","Fairbanks","Alaska","United States of America",64.8,-147.87,"other (see geography.notes)","129","coordinates imprecise","-3.5","NAC","NAC","269",NA,"clay loam","NAC","NAC","NAC","Pergelic Cryaquepts","Pergelic Cryaquepts","Soil Drainage:  Wet",NA,12,"North America","Nearctic","Dfc","Boreal tundra woodland",NA,"Ruess_2003_cfrd","Ruess_2003_cfrd",NA,1,"Luyssaert_2007_cbob; Bond-Lamberty_2004_corr","Maria;R script: Bond-Lamberty",58,"1","1","55","probably unique",TRUE,-2.92499995231628,305,16.2999992370605,-22.7999992370605
213,"Bonanza 5D","LTER","BNZ LTER-5D","Bonanza Creek ","Fairbanks","Alaska","United States of America",64.8,-147.87,"other (see geography.notes)","NI","coordinates imprecise","-3.5","NAC","NAC","269",NA,"clay loam","NAC","NAC","NAC","Pergelic Cryaquepts","Pergelic Cryaquepts","Soil Drainage:  Wet",NA,12,"North America","Nearctic","Dfc","Boreal tundra woodland",NA,"Ruess_2003_cfrd","Ruess_2003_cfrd",NA,1,"Luyssaert_2007_cbob; Bond-Lamberty_2004_corr","Maria;R script: Bond-Lamberty",58,"1","1","55","probably unique",TRUE,-2.92499995231628,305,16.2999992370605,-22.7999992370605
214,"Bonanza Creek high-elevation area with no permafrost (high-np)","LTER","Bonanza 6.1; Bonanza Creek Long Term Ecological Research (LTER) study within the Bonanza Creek Experimental Forest","Bonanza Creek ","Fairbanks","Alaska","United States of America",64.8,-147.87,"NAC","580","part of the Bonanza Creek Long Term Ecological Research (LTER) study within the Bonanza Creek Experimental Forest (64deg48min N, 147deg52min W). ","-3.3","-24.9","16.4","269",NA,"clay loam","NAC","NAC","NAC","Loess","Loess","Soil Drainage:  Dry",NA,12,"North America","Nearctic","Dfc","Boreal tundra woodland",NA,"Vogel_2005_sarr","Vogel_2005_sarr",NA,1,"Luyssaert_2007_cbob","Maria",58,"1","1","55","probably unique",TRUE,-2.92499995231628,305,16.2999992370605,-22.7999992370605
215,"Bonanza Creek mid-elevation deep permafrost area (mid-dp)",NA,"Bonanza 6.2","Bonanza Creek ","Fairbanks","Alaska","United States of America",64.8,-147.87,"NAC","184","Within 30km of High-np, which is part of the Bonanza Creek Long Term Ecological Research (LTER) study within the Bonanza Creek Experimental Forest (64deg48min N, 147deg52min W). ","-3.3","-24.9","16.4","269",NA,"clay loam","NAC","NAC","NAC","NAC",NA,NA,NA,12,"North America","Nearctic","Dfc","Boreal tundra woodland",NA,"Vogel_2005_sarr","Vogel_2005_sarr",NA,1,"Luyssaert_2007_cbob","Maria",58,"1","1","55","probably unique",TRUE,-2.92499995231628,305,16.2999992370605,-22.7999992370605
216,"Bonanza Creek low-elevation shallow permafrost (low-sp)",NA,"Bonanza 6.3","Bonanza Creek ","Fairbanks","Alaska","United States of America",64.8,-147.87,"NAC","124","Within 30km of High-np, which is part of the Bonanza Creek Long Term Ecological Research (LTER) study within the Bonanza Creek Experimental Forest (64deg48min N, 147deg52min W). ","-3.3","-24.9","16.4","269",NA,"clay loam","NAC","NAC","NAC","NAC",NA,NA,NA,12,"North America","Nearctic","Dfc","Boreal tundra woodland",NA,"Vogel_2005_sarr","Vogel_2005_sarr",NA,1,"Luyssaert_2007_cbob","Maria",58,"1","1","55","probably unique",TRUE,-2.92499995231628,305,16.2999992370605,-22.7999992370605
217,"Bonanza Creek/Standard Creek",NA,NA,"Bonanza Creek ","Fairbanks","Alaska","United States of America",64.783333,-148.375,"other (see geography.notes)","NAC","coordinates average of two coordinate pairs","NAC","NAC","NAC","NAC",NA,"NAC","NAC","NAC","NAC","NAC",NA,NA,NA,12,"North America","Nearctic","Dfc","Boreal tundra woodland",NA,"Grunzweig_2015_scic",NA,NA,NA,NA,"Maria",0,"0","1","0","probably unique",TRUE,-3.01250004768372,290,15.8999996185303,-22.1000003814697
218,"Bonanza FP2",NA,NA,"Bonanza Creek ","Fairbanks","Alaska","United States of America",64.75,-148.25,"NAC","NI",NA,"-3.5","NAC","NAC","269",NA,"clay loam","NAC","NAC","NAC","NAC",NA,NA,NA,12,"North America","Nearctic","Dfc","Boreal tundra woodland",NA,"Gower_2001_nppa; Ruess_1996_cofr","Ruess_1996_cofr","Olsen et al 2001",1,"Luyssaert_2007_cbob","Maria",0,"0","1","0","probably unique",TRUE,-2.92499995231628,294,16,-22.2000007629395
219,"Bonanza FP3",NA,NA,"Bonanza Creek ","Fairbanks","Alaska","United States of America",64.75,-148.25,"NAC","NI",NA,"-3.5","NAC","NAC","269",NA,"clay loam","NAC","NAC","NAC","NAC",NA,NA,NA,12,"North America","Nearctic","Dfc","Boreal tundra woodland",NA,"Gower_2001_nppa; Ruess_1996_cofr","Ruess_1996_cofr","Olsen et al 2001",1,"Luyssaert_2007_cbob","Maria",0,"0","1","0","probably unique",TRUE,-2.92499995231628,294,16,-22.2000007629395
220,"Bonanza FP4",NA,NA,"Bonanza Creek ","Fairbanks","Alaska","United States of America",64.75,-148.25,"NAC","NI",NA,"-3.5","NAC","NAC","269",NA,"clay loam","NAC","NAC","NAC","NAC",NA,NA,NA,12,"North America","Nearctic","Dfc","Boreal tundra woodland",NA,"Gower_2001_nppa; Ruess_1996_cofr","Ruess_1996_cofr","Olsen et al 2001",1,"Luyssaert_2007_cbob","Maria",0,"0","1","0","probably unique",TRUE,-2.92499995231628,294,16,-22.2000007629395
221,"Bonanza FP5",NA,NA,"Bonanza Creek ","Fairbanks","Alaska","United States of America",64.75,-148.25,"NAC","NI",NA,"-3.5","NAC","NAC","269",NA,"clay loam","NAC","NAC","NAC","NAC",NA,NA,NA,12,"North America","Nearctic","Dfc","Boreal tundra woodland",NA,"Gower_2001_nppa; Ruess_1996_cofr","Ruess_1996_cofr","Olsen et al 2001",1,"Luyssaert_2007_cbob","Maria",0,"0","1","0","probably unique",TRUE,-2.92499995231628,294,16,-22.2000007629395
222,"Bonanza UP2",NA,NA,"Bonanza Creek ","Fairbanks","Alaska","United States of America",64.75,-148.25,"NAC","NI",NA,"-3.5","NAC","NAC","269",NA,"clay loam","NAC","NAC","NAC","NAC",NA,NA,NA,12,"North America","Nearctic","Dfc","Boreal tundra woodland",NA,"Gower_2001_nppa; Ruess_1996_cofr","Ruess_1996_cofr","Olsen et al 2001",1,"Luyssaert_2007_cbob","Maria",0,"0","1","0","probably unique",TRUE,-2.92499995231628,294,16,-22.2000007629395
223,"Bonanza UP3",NA,NA,"Bonanza Creek ","Fairbanks","Alaska","United States of America",64.75,-148.25,"NAC","NI",NA,"-3.5","NAC","NAC","269",NA,"clay loam","NAC","NAC","NAC","NAC",NA,NA,NA,12,"North America","Nearctic","Dfc","Boreal tundra woodland",NA,"Gower_2001_nppa; Ruess_1996_cofr","Ruess_1996_cofr","Olsen et al 2001",1,"Luyssaert_2007_cbob","Maria",0,"0","1","0","probably unique",TRUE,-2.92499995231628,294,16,-22.2000007629395
224,"Boqueron",NA,NA,NA,"NAC","Colon","Panama",9.333333,-79.833333,"NAC","NAC","on Lago Alajuela in Chagres National Park.","NAC","NAC","NAC","2650","4 month long dry season from Dec-April","silty loam","NAC","NAC","NAC","NAC","Light grey surface","NAC",NA,7,"North America","Neotropics","Am","Tropical rainforest","278","Kraenzel_2003_csoh",NA,NA,NA,NA,NA,4,"1","1","4",NA,TRUE,26.7041664123535,2223,27.7999992370605,25.8999996185303
225,"Boreal Soil and Air Warming Experiment site",NA,NA,"BOREAS (Boreal Ecosystem-Atmospehre Study)","Thompson","Manitoba","Canada",55.88,-98.33,"NAC","NAC",NA,"-3","NAC","NAC","510",NA,"NAC","NAC","NAC","NAC","NAC",NA,NA,NA,92,"North America","Nearctic","Dfc","Boreal coniferous forest",NA,"Bronson_2007_ross",NA,NA,NA,NA,NA,59,"1","supersite","56",NA,TRUE,-3.16249990463257,514,15.8999996185303,-25.1000003814697
226,"BOREAS NOBS-1850","FluxNet",NA,"BOREAS (Boreal Ecosystem-Atmospehre Study)","NAC","Manitoba","Canada",55.879,-98.48,"NAC","NAC",NA,"NAC","NAC","NAC","NAC",NA,"NAC","NAC","NAC","NAC","NAC",NA,NA,NA,92,"North America","Nearctic","Dfc","Boreal coniferous forest",NA,"Goulden_2011_pong",NA,NA,NA,NA,NA,59,"1","supersite","56",NA,TRUE,-3.07083344459534,511,16,-25
227,"BOREAS University of California-1850","FluxNet",NA,"BOREAS (Boreal Ecosystem-Atmospehre Study)","NAC","Manitoba","Canada",55.879,-98.484,"NAC","NAC",NA,"NAC","NAC","NAC","NAC",NA,"NAC","NAC","NAC","NAC","NAC",NA,NA,NA,92,"North America","Nearctic","Dfc","Boreal coniferous forest",NA,"Goulden_2011_pong",NA,NA,NA,NA,NA,59,"1","supersite","56",NA,TRUE,-3.07916665077209,512,16,-25
228,"BOREAS University of California-1930","FluxNet",NA,"BOREAS (Boreal Ecosystem-Atmospehre Study)","NAC","Manitoba","Canada",55.906,-98.525,"NAC","NAC",NA,"NAC","NAC","NAC","NAC",NA,"NAC","NAC","NAC","NAC","NAC",NA,NA,NA,92,"North America","Nearctic","Dfc","Boreal coniferous forest",NA,"Goulden_2011_pong",NA,NA,NA,NA,NA,59,"1","supersite","56",NA,TRUE,-3.12916684150696,511,15.8999996185303,-25
229,"BOREAS University of California-1964","FluxNet",NA,"BOREAS (Boreal Ecosystem-Atmospehre Study)","NAC","Manitoba","Canada",55.912,-98.382,"NAC","NAC",NA,"NAC","NAC","NAC","NAC",NA,"NAC","NAC","NAC","NAC","NAC",NA,NA,NA,92,"North America","Nearctic","Dfc","Boreal coniferous forest",NA,"Goulden_2011_pong",NA,NA,NA,NA,NA,59,"1","supersite","56",NA,TRUE,-3.14583349227905,513,15.8999996185303,-25
230,"BOREAS University of California-1981","FluxNet",NA,"BOREAS (Boreal Ecosystem-Atmospehre Study)","NAC","Manitoba","Canada",55.863,-98.485,"NAC","NAC",NA,"NAC","NAC","NAC","NAC",NA,"NAC","NAC","NAC","NAC","NAC",NA,NA,NA,92,"North America","Nearctic","Dfc","Boreal coniferous forest",NA,"Goulden_2011_pong",NA,NA,NA,NA,NA,59,"1","supersite","56",NA,TRUE,-3.04166674613953,513,16,-25
231,"BOREAS University of California-1989","FluxNet",NA,"BOREAS (Boreal Ecosystem-Atmospehre Study)","NAC","Manitoba","Canada",55.917,-98.964,"NAC","NAC",NA,"NAC","NAC","NAC","NAC",NA,"NAC","NAC","NAC","NAC","NAC",NA,NA,NA,92,"North America","Nearctic","Dfc","Boreal coniferous forest",NA,"Goulden_2011_pong",NA,NA,NA,NA,NA,60,"1;2","supersite","57",NA,TRUE,-2.94166660308838,510,16.1000003814697,-24.8999996185303
232,"BOREAS University of California-1998","FluxNet",NA,"BOREAS (Boreal Ecosystem-Atmospehre Study)","NAC","Manitoba","Canada",56.636,-99.948,"NAC","NAC",NA,"NAC","NAC","NAC","NAC",NA,"NAC","NAC","NAC","NAC","NAC",NA,NA,NA,93,"North America","Nearctic","Dfc","Boreal coniferous forest",NA,"Goulden_2011_pong",NA,NA,NA,NA,NA,61,"1;2","supersite","58",NA,TRUE,-3.28749990463257,499,16.2000007629395,-25.3999996185303
233,"BOREAS University of California-2003","FluxNet",NA,NA,"NAC","Manitoba","Canada",55.898,-98.216,"NAC","NAC",NA,"NAC","NAC","NAC","NAC",NA,"NAC","NAC","NAC","NAC","NAC",NA,NA,NA,92,"North America","Nearctic","Dfc","Boreal coniferous forest",NA,"Goulden_2011_pong",NA,NA,NA,NA,NA,62,"1",NA,"0",NA,TRUE,-3.07916665077209,515,16,-25
234,"BOREAS University of Wisconsin-D1850","FluxNet",NA,"BOREAS (Boreal Ecosystem-Atmospehre Study)","NAC","Manitoba","Canada",55.879,-98.48,"NAC","NAC",NA,"NAC","NAC","NAC","NAC",NA,"NAC","NAC","NAC","NAC","NAC",NA,NA,NA,92,"North America","Nearctic","Dfc","Boreal coniferous forest",NA,"Goulden_2011_pong",NA,NA,NA,NA,NA,59,"1","supersite","56",NA,TRUE,-3.07083344459534,511,16,-25
235,"BOREAS University of Wisconsin-D1930","FluxNet",NA,"BOREAS (Boreal Ecosystem-Atmospehre Study)","NAC","Manitoba","Canada",55.908,-98.519,"NAC","NAC",NA,"NAC","NAC","NAC","NAC",NA,"NAC","NAC","NAC","NAC","NAC",NA,NA,NA,92,"North America","Nearctic","Dfc","Boreal coniferous forest",NA,"Goulden_2011_pong",NA,NA,NA,NA,NA,59,"1","supersite","56",NA,TRUE,-3.12916684150696,511,15.8999996185303,-25
236,"BOREAS University of Wisconsin-D1964","FluxNet",NA,NA,"NAC","Manitoba","Canada",55.92,-98.656,"NAC","NAC",NA,"NAC","NAC","NAC","NAC",NA,"NAC","NAC","NAC","NAC","NAC",NA,NA,NA,92,"North America","Nearctic","Dfc","Boreal coniferous forest",NA,"Goulden_2011_pong",NA,NA,NA,NA,NA,0,"0",NA,"0",NA,TRUE,-3.10416674613953,511,16,-25
237,"BOREAS University of Wisconsin-D1981","FluxNet",NA,"BOREAS (Boreal Ecosystem-Atmospehre Study)","NAC","Manitoba","Canada",55.864,-98.483,"NAC","NAC",NA,"NAC","NAC","NAC","NAC",NA,"NAC","NAC","NAC","NAC","NAC",NA,NA,NA,92,"North America","Nearctic","Dfc","Boreal coniferous forest",NA,"Goulden_2011_pong",NA,NA,NA,NA,NA,59,"1","supersite","56",NA,TRUE,-3.05416679382324,514,16,-25
238,"BOREAS University of Wisconsin-D1989","FluxNet",NA,"BOREAS (Boreal Ecosystem-Atmospehre Study)","NAC","Manitoba","Canada",55.906,-98.979,"NAC","NAC",NA,"NAC","NAC","NAC","NAC",NA,"NAC","NAC","NAC","NAC","NAC",NA,NA,NA,92,"North America","Nearctic","Dfc","Boreal coniferous forest",NA,"Goulden_2011_pong",NA,NA,NA,NA,NA,60,"1;2","supersite","57",NA,TRUE,-2.92083334922791,507,16.1000003814697,-24.8999996185303
