site.ID,sites.sitename,city,state,country,lat,lon,masl,geography.notes,mat,min.temp,max.temp,map,climate.notes,soil.texture,soil.classification,soil.notes,hydrology.notes,site.notes,geographic.area,biogeog,Koeppen,FAO.ecozone,site.ID.v1,tropical.extratropical,site.ref,ref.notes,lacks.info.from.ori.pub,loaded.from,loaded.by
1,4 Rios,NAC,Heredia,Costa Rica,10.3888,-84.1327,248,NA,24.2,NAC,NAC,3967,NA,NAC,Inceptisol,NA,NAC,NA,1,Neotropics,Am,Tropical rainforest,1301,tropical,NA,NA,NA,NA,NA
2,Aakre,NAC,Valga,Estonia,58.03,26.016,NAC,NA,5.4,NAC,NAC,675,NA,sandy loam,Haplic Umbrisol,Haplic Umbrisol,NA,NA,2,Palearctic,Dfb,Temperate continental forest,NA,extratropical,NA,NA,NA,NA,NA
3,Aberfeldy/Griffins,NAC,Perth and Kinross,United Kingdom,56.6,-3.78,340,NA,7.6,NAC,NAC,1195.25,NA,loam,NAC,NA,NA,NA,3,Palearctic,Cfb,Boreal coniferous forest,NA,extratropical,NA,CD Carbodata,1,Luyssaert_2007_cbob,Maria
4,Acahual 1,Hidalgotitlan,Veracruz,Mexico,17.29,-94.58,150,NA,25.775,NAC,NAC,3640,NA,NAC,Oxisol; Alfisol,"Soils are derived principally from sedimentary rocks of limestone, shale and sandstone, with Oxisols and Alfisols being the most comon soil types encountered.",NAC,NA,4,Neotropics,Aw,Tropical rainforest,336,tropical,NA,NA,NA,NA,NA
5,Acahual 2,Hidalgotitlan,Veracruz,Mexico,17.29,-94.58,150,NA,25.775,NAC,NAC,3640,NA,NAC,Oxisol; Alfisol,"Soils are derived principally from sedimentary rocks of limestone, shale and sandstone, with Oxisols and Alfisols being the most comon soil types encountered.",NAC,NA,4,Neotropics,Aw,Tropical rainforest,337,tropical,NA,NA,NA,NA,NA
6,Agrovila Grande Esperanca.BR-230,Altamira,Para,Brazil,-3.366667,-52.616667,100,NA,23.65,NAC,NAC,1697,NA,NAC,"ultisols, oxisols, and a few spots of alfisols",NA,NAC,NA,5,Neotropics,Am,Tropical rainforest,70,tropical,NA,NA,NA,NA,NA
7,Agua Pudre plot E AGP-01,NAC,Amazonas,Colombia,-3.73,-70.4,105,NA,25.5,NAC,NAC,2723,NA,clay loam,Oxisol,"Endostagnic Plinthosol (Alumic, Hyperdystic)",NAC,NA,6,Neotropics,Af,Tropical rainforest,443,tropical,Aragao_2009_aabn; Jimenez_2009_frdf,NA,NA,NA,NA
8,Agua Pudre plot U AGP-02,NAC,Amazonas,Colombia,-3.72,-70.3,110,NA,25.5,NAC,NAC,2723,NA,clay loam,Oxisol,"Endostagnic Plinthosol (Alumic, Hyperdystic)",NAC,NA,6,Neotropics,Af,Tropical rainforest,444,tropical,Aragao_2009_aabn; Jimenez_2009_frdf,NA,NA,NA,NA
9,Aguas Claras,NAC,Colon,Panama,9.333333,-79.833333,NAC,in Soberania National Park.,NAC,NAC,NAC,2650,4 month long dry season from Dec-April,slightly clayey loam,NAC,Dark-yellowish-brown surface,NAC,NA,7,Neotropics,Am,Tropical rainforest,281,tropical,NA,NA,NA,NA,NA
10,Agumbe,NAC,Karnataka,India,13.52,75.1,575,NA,22.2,NAC,NAC,7670,NA,NAC,NAC,Oxisol,NAC,Rain forest,8,IndoMalay,Aw,Tropical rainforest,329,tropical,NA,Rai_1986,NA,NA,NA
11,Aheden,NAC,Vasterbotten,Sweden,64.21,19.5,175,NA,1,NAC,NAC,588,NA,loam,NAC,NA,NA,NA,9,Palearctic,Dfc,Boreal coniferous forest,NA,extratropical,Schulze_2000_tcan,NA,1,Luyssaert_2007_cbob,Maria
12,Aheden 2,NAC,Vasterbotten,Sweden,64.23,19.76,175,NA,1,NAC,NAC,600,NA,loam,NAC,NA,NA,NA,9,Palearctic,Dfc,Boreal coniferous forest,NA,extratropical,NA,Bhupinderpal-Singh_2003,1,Luyssaert_2007_cbob,Maria
13,Ailao,NAC,Yunnan,China,24.5333,101.0017,NAC,NA,11.3,NAC,NAC,1840,NA,NAC,NAC,NA,NA,NA,10,IndoMalay,Cwb,Subtropical mountain system,NA,extratropical,NA,Liu_2014_htpa,NA,Liu_2014_htpa,Maria
14,Akou,Akou,Hyogo,Japan,34.7349444,134.3743056,10,NA,15.43,NAC,NAC,962,NA,NAC,NAC,NA,NA,NA,11,Palearctic,Cfa,NA,NA,extratropical,NA,NA,NA,NA,Maria
15,Alaska,NAC,Alaska,United States of America,64.75,-148.25,NAC,NA,-3.5,NAC,NAC,269,NA,NAC,NAC,NA,NA,NA,12,Nearctic,Dfc,Boreal tundra woodland,NA,extratropical,NA,Keith_2009_rofb; Liu_2014_htpa,NA,Keith_2009_rofb; Liu_2014_htpa,Maria
16,Alaska - interior,NAC,Alaska,United States of America,64,-147,NAC,NA,NAC,NAC,NAC,NAC,NA,NAC,NAC,NA,NA,NA,13,Nearctic,Dfc,Boreal mountain system,NA,extratropical,Ueyama_2006_cfot,NA,1,Baldocchi_2008_bott,Maria
17,Alaskan coast,NAC,Alaska,United States of America,58.37,-134.72,NAC,NA,10,NAC,NAC,3550,NA,NAC,NAC,NA,NA,NA,14,Nearctic,Dfc,Temperate mountain system,NA,extratropical,NA,Keith_2009_rofb; Liu_2014_htpa,NA,Keith_2009_rofb; Liu_2014_htpa,Maria
18,Alatskivi 1,NAC,Tartu,Estonia,58.55,27.083,NAC,NA,5.4,NAC,NAC,675,NA,sandy loam,Haplic Umbrisol,Haplic Umbrisol,NA,NA,15,Palearctic,Dfb,Temperate continental forest,NA,extratropical,NA,NA,NA,NA,NA
19,Alatskivi 2,NAC,Tartu,Estonia,58.617,27.03,NAC,NA,5.4,NAC,NAC,675,NA,sandy loam,Gleyic Umbrisol,Gleyic Umbrisol,NA,NA,15,Palearctic,Dfb,Temperate continental forest,NA,extratropical,NA,NA,NA,NA,NA
20,Alava,Tutuila,Eastern District,American Samoa,-14.264369,-170.688202,NAC,ori coords fell in ocean. New coords from gmaps,26.9,NAC,NAC,3207,NA,clay,Mollisol,Lithic Hapludoll-Rock outcrop association,NAC,NA,16,Oceania,Af,Tropical rainforest,12,tropical,NA,NA,NA,NA,NA
21,Alberga,NAC,Para,Suriname,5.341,-55.764,NAC,NA,NAC,NAC,NAC,2156,NA,NAC,NAC,NA,NAC,NA,17,Neotropics,Af,Tropical moist forest,1367,tropical,NA,NA,NA,NA,NA
22,Alberta,NAC,Alberta,Canada,54.25,-117,NAC,NA,2.6,NAC,NAC,500,NA,NAC,NAC,NA,NA,NA,18,Nearctic,Dfc,Boreal coniferous forest,NA,extratropical,NA,Keith_2009_rofb; Liu_2014_htpa,NA,Keith_2009_rofb; Liu_2014_htpa,Maria
23,Alberta AB10,NAC,Alberta,Canada,50.27,-114.59,1903,NA,0.8,NAC,NAC,626,MAT and MAP from Liu2014,NAC,NAC,NA,NA,NA,19,Nearctic,Dfc,Temperate mountain system,NA,extratropical,NA,Liu_2014_htpa,NA,Liu_2014_htpa,Maria
24,Alberta AB11,NAC,Alberta,Canada,50.26,-114.6,2010,NA,0.2,NAC,NAC,635,MAT and MAP from Liu2014,NAC,NAC,NA,NA,NA,19,Nearctic,Dfc,Temperate mountain system,NA,extratropical,NA,Liu_2014_htpa,NA,Liu_2014_htpa,Maria
25,Alberta AB12,NAC,Alberta,Canada,50.25,-114.6,2010,NA,0.2,NAC,NAC,636,MAT and MAP from Liu2014,NAC,NAC,NA,NA,NA,19,Nearctic,Dfc,Temperate mountain system,NA,extratropical,NA,Liu_2014_htpa,NA,Liu_2014_htpa,Maria
26,Alberta AB13,NAC,Alberta,Canada,50.22,-114.59,2010,NA,-0.1,NAC,NAC,646,MAT and MAP from Liu2014,NAC,NAC,NA,NA,NA,19,Nearctic,Dfc,Temperate mountain system,NA,extratropical,NA,Liu_2014_htpa,NA,Liu_2014_htpa,Maria
27,Alberta AB14,NAC,Alberta,Canada,50.25,-114.59,2010,NA,0.2,NAC,NAC,638,MAT and MAP from Liu2014,NAC,NAC,NA,NA,NA,19,Nearctic,Dfc,Temperate mountain system,NA,extratropical,NA,Liu_2014_htpa,NA,Liu_2014_htpa,Maria
28,Alberta AB15,NAC,Alberta,Canada,50.29,-114.57,1903,NA,0.8,NAC,NAC,622,MAT and MAP from Liu2014,NAC,NAC,NA,NA,NA,19,Nearctic,Dfc,Temperate mountain system,NA,extratropical,NA,Liu_2014_htpa,NA,Liu_2014_htpa,Maria
29,Alberta AB16,NAC,Alberta,Canada,51.45,-115.05,1532,NA,0.4,NAC,NAC,555,MAT and MAP from Liu2014,NAC,NAC,NA,NA,NA,20,Nearctic,Dfc,Boreal coniferous forest,NA,extratropical,NA,Liu_2014_htpa,NA,Liu_2014_htpa,Maria
30,Alberta AB17,NAC,Alberta,Canada,52.4,-115.67,1501,NA,0.8,NAC,NAC,569,MAT and MAP from Liu2014,NAC,NAC,NA,NA,NA,21,Nearctic,Dfc,Boreal coniferous forest,NA,extratropical,NA,Liu_2014_htpa,NA,Liu_2014_htpa,Maria
31,Alberta AB18,NAC,Alberta,Canada,54.51,-117.62,844,NA,2.2,NAC,NAC,597,MAT and MAP from Liu2014,NAC,NAC,NA,NA,NA,22,Nearctic,Dfc,Boreal coniferous forest,NA,extratropical,NA,Liu_2014_htpa,NA,Liu_2014_htpa,Maria
32,Alberta AB19,NAC,Alberta,Canada,56.79,-118.59,845,NA,-0.6,NAC,NAC,456,MAT and MAP from Liu2014,NAC,NAC,NA,NA,NA,23,Nearctic,Dfc,Boreal coniferous forest,NA,extratropical,NA,Liu_2014_htpa,NA,Liu_2014_htpa,Maria
33,Alberta AB20,NAC,Alberta,Canada,56.55,-119.31,815,NA,-0.1,NAC,NAC,439,MAT and MAP from Liu2014,NAC,NAC,NA,NA,NA,24,Nearctic,Dfc,Boreal coniferous forest,NA,extratropical,NA,Liu_2014_htpa,NA,Liu_2014_htpa,Maria
34,Alberta AB21,NAC,Alberta,Canada,57.13,-118.33,747,NA,-0.9,NAC,NAC,450,MAT and MAP from Liu2014,NAC,NAC,NA,NA,NA,25,Nearctic,Dfc,Boreal coniferous forest,NA,extratropical,NA,Liu_2014_htpa,NA,Liu_2014_htpa,Maria
35,Alberta AB22,NAC,Alberta,Canada,55.51,-114.25,746,NA,-0.9,NAC,NAC,524,MAT and MAP from Liu2014,NAC,NAC,NA,NA,NA,26,Nearctic,Dfc,Boreal coniferous forest,NA,extratropical,NA,Liu_2014_htpa,NA,Liu_2014_htpa,Maria
36,Alberta AB23,NAC,Alberta,Canada,50.14,-114.51,1882,NA,-0.7,NAC,NAC,652,MAT and MAP from Liu2014,NAC,NAC,NA,NA,NA,19,Nearctic,Dfc,Temperate mountain system,NA,extratropical,NA,Liu_2014_htpa,NA,Liu_2014_htpa,Maria
37,Alberta AB24,NAC,Alberta,Canada,50.15,-114.5,1882,NA,-0.5,NAC,NAC,646,MAT and MAP from Liu2014,NAC,NAC,NA,NA,NA,19,Nearctic,Dfc,Temperate mountain system,NA,extratropical,NA,Liu_2014_htpa,NA,Liu_2014_htpa,Maria
38,Alberta AB25,NAC,Alberta,Canada,50.16,-114.51,1882,NA,-1.2,NAC,NAC,651,MAT and MAP from Liu2014,NAC,NAC,NA,NA,NA,19,Nearctic,Dfc,Temperate mountain system,NA,extratropical,NA,Liu_2014_htpa,NA,Liu_2014_htpa,Maria
39,Alberta AB26,NAC,Alberta,Canada,50.16,-114.5,1882,NA,-1,NAC,NAC,649,MAT and MAP from Liu2014,NAC,NAC,NA,NA,NA,19,Nearctic,Dfc,Temperate mountain system,NA,extratropical,NA,Liu_2014_htpa,NA,Liu_2014_htpa,Maria
40,Alberta AB27,NAC,Alberta,Canada,50.2,-114.55,2448,NA,-0.6,NAC,NAC,649,MAT and MAP from Liu2014,NAC,NAC,NA,NA,NA,19,Nearctic,Dfc,Temperate mountain system,NA,extratropical,NA,Liu_2014_htpa,NA,Liu_2014_htpa,Maria
41,Alberta AB28,NAC,Alberta,Canada,50.19,-114.55,2448,NA,-0.9,NAC,NAC,652,MAT and MAP from Liu2014,NAC,NAC,NA,NA,NA,19,Nearctic,Dfc,Temperate mountain system,NA,extratropical,NA,Liu_2014_htpa,NA,Liu_2014_htpa,Maria
42,Alberta AB29,NAC,Alberta,Canada,53.03,-115.25,929,NA,1.8,NAC,NAC,543,MAT and MAP from Liu2014,NAC,NAC,NA,NA,NA,27,Nearctic,Dfc,Boreal coniferous forest,NA,extratropical,NA,Liu_2014_htpa,NA,Liu_2014_htpa,Maria
43,Alberta AB30,NAC,Alberta,Canada,53.28,-115.45,920,NA,1.6,NAC,NAC,559,MAT and MAP from Liu2014,NAC,NAC,NA,NA,NA,28,Nearctic,Dfc,Boreal coniferous forest,NA,extratropical,NA,Liu_2014_htpa,NA,Liu_2014_htpa,Maria
44,Alberta AB31,NAC,Alberta,Canada,55.14,-114.82,784,NA,-1.1,NAC,NAC,551,MAT and MAP from Liu2014,NAC,NAC,NA,NA,NA,29,Nearctic,Dfc,Boreal coniferous forest,NA,extratropical,NA,Liu_2014_htpa,NA,Liu_2014_htpa,Maria
45,Alberta AB5,NAC,Alberta,Canada,54.17,-116.77,881,NA,2.6,NAC,NAC,579,MAT and MAP from Liu2014,NAC,NAC,NA,NA,NA,18,Nearctic,Dfc,Boreal coniferous forest,NA,extratropical,NA,Liu_2014_htpa,NA,Liu_2014_htpa,Maria
46,Alberta AB6,NAC,Alberta,Canada,55.33,-111.84,661,NA,0.2,NAC,NAC,475,MAT and MAP from Liu2014,NAC,NAC,NA,NA,NA,30,Nearctic,Dfc,Boreal coniferous forest,NA,extratropical,NA,Liu_2014_htpa,NA,Liu_2014_htpa,Maria
47,Alberta AB7,NAC,Alberta,Canada,49.38,-114.39,1490,NA,2.5,NAC,NAC,669,MAT and MAP from Liu2014,NAC,NAC,NA,NA,NA,31,Nearctic,Dfc,Temperate mountain system,NA,extratropical,NA,Liu_2014_htpa,NA,Liu_2014_htpa,Maria
48,Alberta AB8,NAC,Alberta,Canada,49.34,-114.15,1435,NA,1.5,NAC,NAC,648,MAT and MAP from Liu2014,NAC,NAC,NA,NA,NA,31,Nearctic,Dfc,Temperate mountain system,NA,extratropical,NA,Liu_2014_htpa,NA,Liu_2014_htpa,Maria
49,Alberta AB9,NAC,Alberta,Canada,50.18,-114.47,1882,NA,0,NAC,NAC,631,MAT and MAP from Liu2014,NAC,NAC,NA,NA,NA,19,Nearctic,Dfc,Temperate mountain system,NA,extratropical,NA,Liu_2014_htpa,NA,Liu_2014_htpa,Maria
50,Aleman,NAC,Alajuela,Costa Rica,10.3019,-84.7408,962,NA,21.6,NAC,NAC,5800,NA,NAC,Andisol,NA,NAC,NA,32,Neotropics,Aw,Tropical rainforest,1306,tropical,NA,NA,NA,NA,NA
51,Aleza Lake,NAC,British Columbia,Canada,54.05,-122.05,NI,NA,3,NAC,NAC,900,NA,sandy loam,NAC,NA,NA,NA,33,Nearctic,Dfc,Temperate mountain system,NA,extratropical,Fredeen_2007_wdrs,NA,1,Luyssaert_2007_cbob,Maria
52,Alkkia Scots pine plantation,NAC,Satakunta,Finland,62.1764333,22.7836833,159,NA,NAC,NAC,NAC,NAC,NA,NAC,NAC,NA,NA,NA,34,Palearctic,Dfc,Boreal coniferous forest,NA,extratropical,Lohila_2007_cdea,NA,NA,Baldocchi_2008_bott,Maria
53,Allpahuayo A,NAC,Loreto,Peru,-4,-73.4,NAC,NA,NAC,NAC,NAC,NAC,NA,NAC,NAC,NA,NAC,NA,35,Neotropics,Af,Tropical rainforest,1421,tropical,NA,NA,NA,NA,NA
54,Allpahuayo A ALP11/ALP12,NAC,Loreto,Peru,-3.95,-73.4333,120,NA,25.2,NAC,NAC,2689,NA,sandy loam,Alisol/Gleysol,"This site is located on an infertile, sandy upper soil layer; however, there is evidence that tree roots may have access to a deeper, more fertile soil and thus contribute to the high productivity observed (P.V.A. Fine, personal communications).",NAC,NA,35,Neotropics,Af,Tropical rainforest,459,tropical,del Aguila-Pasquel_2014_tsco,NA,NA,NA,NA
55,Allpahuayo A clay-rich soils,NAC,Loreto,Peru,-3.95,-73.43,120,NA,26.3,NAC,NAC,2762,Dry season length 0.77 mths,NAC,entisol (typic endoaquent),NA,terra firma,NA,35,Neotropics,Af,Tropical rainforest,58,tropical,NA,NA,NA,NA,NA
56,Allpahuayo A sandy soils,NAC,Loreto,Peru,-3.95,-73.43,120,NA,26.3,NAC,NAC,2762,Dry season length 0.77 mths,NAC,ultisol (typic paleudult),NA,terra firma,NA,35,Neotropics,Af,Tropical rainforest,59,tropical,NA,NA,NA,NA,NA
57,Allpahuayo B,NAC,Loreto,Peru,-4,-73.4,NAC,NA,NAC,NAC,NAC,NAC,NA,NAC,NAC,NA,NAC,NA,35,Neotropics,Af,Tropical rainforest,1422,tropical,NA,NA,NA,NA,NA
58,Allpahuayo B clay-rich soils,NAC,Loreto,Peru,-3.95,-73.43,114,NA,26.3,NAC,NAC,2763,Dry season length 0.77 mths,NAC,ultisol (typic hapludult),NA,terra firma,NA,35,Neotropics,Af,Tropical rainforest,60,tropical,Malhi_2004_tacw,NA,NA,NA,NA
59,Allpahuayo B sandy soils,NAC,Loreto,Peru,-3.95,-73.43,114,NA,26.3,NAC,NAC,2763,Dry season length 0.77 mths,NAC,entisol (spodic udipsamment),NA,terra firma,NA,35,Neotropics,Af,Tropical rainforest,61,tropical,Malhi_2004_tacw,NA,NA,NA,NA
60,Allpahuayo C ALP30,NAC,Loreto,Peru,-3.9543,-73.4267,150,NA,25.2,NAC,NAC,2689,NA,loamy sand,Arenosol,NA,NAC,NA,35,Neotropics,Af,Tropical rainforest,460,tropical,del Aguila-Pasquel_2014_tsco,NA,NA,NA,NA
61,AM10,Manaus,Amazonas,Brazil,-3.06,-60,NAC,NA,25.6,NAC,NAC,2100,NA,clay,Oxisol,Mostly clayey oxisols with patches of sandy soils in valley bottoms (AM10).,NAC,NA,36,Neotropics,Af,Tropical rainforest,82,tropical,NA,NA,NA,NA,NA
62,Amacayacu E,NAC,Amazonas,Colombia,-3.72,-70.3,NAC,NA,NAC,NAC,NAC,2888,rainfall seasonality index SR (%) = 0.13,NAC,Plinthosol,NA,NAC,NA,6,Neotropics,Af,Tropical rainforest,1167,tropical,NA,NA,NA,NA,NA
63,Amacayacu U,NAC,Amazonas,Colombia,-3.72,-70.3,NAC,NA,NAC,NAC,NAC,2888,rainfall seasonality index SR (%) = 0.13,NAC,Plinthosol,NA,NAC,NA,6,Neotropics,Af,Tropical rainforest,1168,tropical,NA,NA,NA,NA,NA
64,Amalau,Tutuila,Eastern District,American Samoa,-14.256152,-170.661824,NAC,ori coords fell in ocean. New coords from gmaps,26.9,NAC,NAC,3207,NA,stony silty clay loam (talus),NAC,"very stony silty clay loam (Nakamura 1984), hereafter referred to as 'talus' and characterized by a loose layer of variable-sized stones and rocks overlaying a clay soil",NAC,NA,16,Oceania,Af,Tropical rainforest,13,tropical,NA,NA,NA,NA,NA
65,Anandgoan,NAC,Chhattisgarh,India,21.9,81.55,300,NA,27.75,13.2,42.3,1200,NA,clay,Entisol,The soil of the study area is red laterite derived from metamorphicrock with stones and ferruginous gravel and classifed as Entisols.,NAC,NA,37,IndoMalay,Aw,Tropical dry forest,397,tropical,NA,NA,NA,NA,NA
66,"Anangu, A1",NAC,Orellana,Ecuador,-0.53,-76.43,250,NA,25.77,NAC,NAC,3252,Dry season length 0.31 mths,NAC,ultisol,NA,seasonally flooded,NA,38,Neotropics,Af,Tropical rainforest,466,tropical,NA,Korning (1992),NA,NA,NA
67,"Anangu, A2",NAC,Orellana,Ecuador,-0.53,-76.43,310,NA,25.47,NAC,NAC,3252,Dry season length 0.31 mths,NAC,ultisol,NA,terra firma,NA,38,Neotropics,Af,Tropical rainforest,467,tropical,NA,Korning (1992),NA,NA,NA
68,"Anangu, A3",NAC,Orellana,Ecuador,-0.53,-76.43,370,NA,25.17,NAC,NAC,3252,Dry season length 0.31 mths,NAC,ultisol,NA,terra firma,NA,38,Neotropics,Af,Tropical rainforest,468,tropical,NA,Korning (1992),NA,NA,NA
69,Andrews 1,NAC,Oregon,United States of America,44.2576,-122.2012,780,NA,NAC,NAC,NAC,NAC,NA,loam,NAC,NA,NA,NA,39,Nearctic,Csb,Temperate mountain system,NA,extratropical,Law_2004_dace,NA,1,Luyssaert_2007_cbob,Maria
70,Andrews 10,NAC,Oregon,United States of America,44.2479,-122.2008,785,NA,NAC,NAC,NAC,NAC,NA,loam,NAC,NA,NA,NA,39,Nearctic,Csb,Temperate mountain system,NA,extratropical,Law_2004_dace,NA,1,Luyssaert_2007_cbob,Maria
71,Andrews 11,NAC,Oregon,United States of America,44.2334,-122.1731,738,NA,NAC,NAC,NAC,NAC,NA,loam,NAC,NA,NA,NA,39,Nearctic,Csb,Temperate mountain system,NA,extratropical,Law_2004_dace,NA,1,Luyssaert_2007_cbob,Maria
72,Andrews 12,NAC,Oregon,United States of America,44.2587,-122.1818,812,NA,NAC,NAC,NAC,NAC,NA,loam,NAC,NA,NA,NA,39,Nearctic,Csb,Temperate mountain system,NA,extratropical,Law_2004_dace,NA,1,Luyssaert_2007_cbob,Maria
73,Andrews 2,NAC,Oregon,United States of America,44.2515,-122.2018,815,NA,NAC,NAC,NAC,NAC,NA,loam,NAC,NA,NA,NA,39,Nearctic,Csb,Temperate mountain system,NA,extratropical,Law_2004_dace,NA,1,Luyssaert_2007_cbob,Maria
74,Andrews 3,NAC,Oregon,United States of America,44.2588,-122.2041,766,NA,NAC,NAC,NAC,NAC,NA,loam,NAC,NA,NA,NA,39,Nearctic,Csb,Temperate mountain system,NA,extratropical,Law_2004_dace,NA,1,Luyssaert_2007_cbob,Maria
75,Andrews 4,NAC,Oregon,United States of America,44.2477,-122.1974,737,NA,NAC,NAC,NAC,NAC,NA,loam,NAC,NA,NA,NA,39,Nearctic,Csb,Temperate mountain system,NA,extratropical,Law_2004_dace,NA,1,Luyssaert_2007_cbob,Maria
76,Andrews 5,NAC,Oregon,United States of America,44.2347,-122.1766,712,NA,NAC,NAC,NAC,NAC,NA,loam,NAC,NA,NA,NA,39,Nearctic,Csb,Temperate mountain system,NA,extratropical,Law_2004_dace,NA,1,Luyssaert_2007_cbob,Maria
77,Andrews 6,NAC,Oregon,United States of America,44.2548,-122.1827,782,NA,NAC,NAC,NAC,NAC,NA,loam,NAC,NA,NA,NA,39,Nearctic,Csb,Temperate mountain system,NA,extratropical,Law_2004_dace,NA,1,Luyssaert_2007_cbob,Maria
78,Andrews 7,NAC,Oregon,United States of America,44.2705,-122.2173,700,NA,NAC,NAC,NAC,NAC,NA,loam,NAC,NA,NA,NA,39,Nearctic,Csb,Temperate mountain system,NA,extratropical,Law_2004_dace,NA,1,Luyssaert_2007_cbob,Maria
79,Andrews 8,NAC,Oregon,United States of America,44.2699,-122.2265,859,NA,NAC,NAC,NAC,NAC,NA,loam,NAC,NA,NA,NA,39,Nearctic,Csb,Temperate mountain system,NA,extratropical,Law_2004_dace,NA,1,Luyssaert_2007_cbob,Maria
80,Andrews 9,NAC,Oregon,United States of America,44.2626,-122.1944,846,NA,NAC,NAC,NAC,NAC,NA,loam,NAC,NA,NA,NA,39,Nearctic,Csb,Temperate mountain system,NA,extratropical,Law_2004_dace,NA,1,Luyssaert_2007_cbob,Maria
81,Andrews watershed,NAC,Oregon,United States of America,44.25,-122.17,531,NA,8.7,NAC,NAC,2370,NA,loam,NAC,NA,NA,NA,39,Nearctic,Csb,Temperate mountain system,NA,extratropical,Sulzmann_2005_coal,NA,1,Luyssaert_2007_cbob,Maria
82,Andrews watershed 10,NAC,Oregon,United States of America,44.25,-122.33,430,NA,8.5,NAC,NAC,2250,NA,loam,NAC,NA,NA,NA,39,Nearctic,Csb,Temperate mountain system,NA,extratropical,DeAngelis_1981_pofe,"DeAngelis et al 1981 IBP_101,",1,Luyssaert_2007_cbob,Maria
83,"Apiau,Roraima",NAC,Roraima,Brazil,2.57,-61.3,NAC,NA,NAC,NAC,NAC,1902,rainfall seasonality index SR (%) = 0.47,NAC,Acrisol,NA,NAC,NA,40,Neotropics,Am,Tropical moist forest,1169,tropical,NA,NA,NA,NA,NA
84,"Appomattox Buckingham S.F., Chestnut Ridge Natural Area",NAC,Virginia,United States of America,37.407916,-78.622173,NAC,NA,NAC,NAC,NAC,NAC,NA,NAC,NAC,NA,NA,NA,41,Nearctic,Cfa,Subtropical humid forest,NA,extratropical,NA,NA,NA,NA,Maria
85,Araracuara,NAC,Amazonas,Colombia,-0.63,-72.37,NAC,NA,25.5,NAC,NAC,2998,NA,NAC,NAC,NA,NAC,NA,42,Neotropics,Af,Tropical rainforest,131,tropical,NA,NA,NA,NA,NA
86,Arengou,Baiyu,Sichuan,China,31.2,98.8,NAC,NA,5.9,NAC,NAC,555,NA,NAC,NAC,NA,NA,NA,43,Palearctic,Dwc,Subtropical mountain system,NA,extratropical,NA,Liu_2014_htpa,NA,Liu_2014_htpa,Maria
87,Arroyo Negro,Yucatan,Campeche,Mexico,17.883,-89.283,NAC,NA,25,NAC,NAC,1418,NA,NAC,NAC,"Regionally, soils are shallow, calcareous, and highly permeable due to organic matter content and under- lying limestone bedrock.",NAC,NA,44,Neotropics,Aw,Tropical moist forest,338,tropical,NA,NA,NA,NA,NA
88,Asa,NAC,Kronoberg,Sweden,57.13,14.75,190,NA,7.5,NAC,NAC,712,NA,NAC,NAC,NA,NA,NA,45,Palearctic,Cfb,Temperate continental forest,NA,extratropical,NA,NA,NA,Yu_2014_hcdu,Maria
89,Ashu Kyoto,NAC,Kyoto,Japan,35.33,135.75,680,NA,11.3,NAC,NAC,2788,NA,clay loam,NAC,NA,NA,NA,46,Palearctic,Cfa,Temperate mountain system,NA,extratropical,DeAngelis_1981_pofe,"DeAngelis et al 1981 IBP_39,ods,",1,Luyssaert_2007_cbob,Maria
90,ASN-02_Asenanyo F.R. 2,NAC,Ashanti,Ghana,6.56,-2.22,270,NA,25.7,NAC,NAC,1416,NA,NAC,NAC,NA,NAC,NA,47,Afrotropics,Aw,Tropical rainforest,255,tropical,NA,NA,NA,NA,NA
91,ASN-04_Asenanyo F.R. 4,NAC,Ashanti,Ghana,6.48,-2.17,230,NA,25.6,NAC,NAC,1434,NA,NAC,NAC,NA,NAC,NA,47,Afrotropics,Aw,Tropical rainforest,254,tropical,NA,NA,NA,NA,NA
92,AspenFACE,Rhinelander,Wisconsin,United States of America,45.667,-89.6167,NAC,NA,4,NAC,NAC,810,NA,sandy loam,NAC,NA,NA,NA,48,Nearctic,Dfb,Temperate continental forest,NA,extratropical,NA,NA,NA,NA,NA
93,ASU-01_Asukese F.R. 1,NAC,Brong-Ahafo,Ghana,7.14,-2.45,285,NA,25.9,NAC,NAC,1212,NA,NAC,NAC,NA,NAC,NA,49,Afrotropics,Aw,Tropical rainforest,256,tropical,NA,NA,NA,NA,NA
94,Atherton Gadgarra,Athterton,Queensland,Australia,-17.3,145.72,700,NA,NAC,NAC,NAC,2100,NA,NAC,NAC,"typical krasnozem humox (0.50/0.13/0.37 sand/silt/clay, 0-30 cm)",NAC,NA,50,Australasia,Cfa,Tropical rainforest,3,tropical,NA,NA,NA,NA,NA
95,Atherton Tableland,Athterton,Queensland,Australia,-17.28,145.57,720,NA,20,14.7,20.2,1427,NA,NAC,NAC,dark red basaltic / krasnozem 0.15/0.38/0.47 sand/silt/clay (0-30 cm),NAC,NA,50,Australasia,Cfa,Tropical rainforest,4,tropical,NA,NA,NA,NA,NA
96,Atherton Wongabel,Athterton,Queensland,Australia,-17.32,145.5,760,NA,NAC,NAC,NAC,1560,NA,NAC,NAC,"typical krasnozem ochrept; (0.53/0.12/0.34 sand/silt/clay, 0-30 cm)",NAC,NA,50,Australasia,Cwa,Tropical rainforest,2,tropical,NA,NA,NA,NA,NA
97,Aubure (Natural regeneration),NAC,Haut-Rhin,France,48.2,7.18,1000,NA,5.4,NAC,NAC,1192,NA,loam,NAC,NA,NA,NA,51,Palearctic,Cfb,Temperate mountain system,NA,extratropical,Schulze_2000_tcan,NA,1,Luyssaert_2007_cbob,Maria
98,Aubure (Planted),NAC,Haut-Rhin,France,48.2,7.18,1050,NA,5.4,NAC,NAC,1192,NA,loam,NAC,NA,NA,NA,51,Palearctic,Cfb,Temperate mountain system,NA,extratropical,Schulze_2000_tcan,NA,1,Luyssaert_2007_cbob,Maria
99,Austin Cary Management Forest,NAC,Florida,United States of America,29.74,-82.21,50,NA,21.7,NAC,NAC,1330,NA,clay loam,NAC,NA,NA,NA,52,Nearctic,Cfa,Subtropical humid forest,NA,extratropical,NA,Ameriflux website,1,Luyssaert_2007_cbob,Maria
100,Bago Mountain swidden cultivation fallows chronosequence,Karen,Bago,Myanmar,18.875,95.891,350,NA,27,NAC,NAC,1900,NA,NAC,Ultisol,NA,NAC,NA,53,IndoMalay,Aw,Tropical rainforest,385,tropical,NA,NA,NA,NA,NA
101,"Baihe, Nanping",Nanping,Sichuan,China,33.25,103.77,NAC,NA,4,NAC,NAC,832,NA,NAC,NAC,NA,NA,NA,54,Palearctic,Dwb,Subtropical mountain system,NA,extratropical,NA,Liu_2014_htpa,NA,Liu_2014_htpa,Maria
102,Baisha,NAC,Guangxi,China,21.7,109.6,NAC,NA,23.8,NAC,NAC,1581,NA,NAC,NAC,NA,NAC,NA,55,IndoMalay,Cwa,Subtropical humid forest,404,tropical,NA,NA,NA,NA,NA
103,Baiyin'aobao,NAC,Inner Mongol,China,43.51,117.22,NAC,NA,0.7,NAC,NAC,381,NA,NAC,NAC,NA,NA,NA,56,Palearctic,Dwb,Temperate steppe,NA,extratropical,NA,Liu_2014_htpa,NA,Liu_2014_htpa,Maria
104,Baiyu,NAC,Sichuan,China,31.2,98.8,NAC,NA,4.9,NAC,NAC,549,NA,NAC,NAC,NA,NA,NA,43,Palearctic,Dwc,Subtropical mountain system,NA,extratropical,NA,Liu_2014_htpa,NA,Liu_2014_htpa,Maria
105,Bajo Calima Concession Chronosequence,NAC,Valle del Cauca,Colombia,3.916667,-77,100,NA,27.3,21.4,30.3,7000,transitional tropical wet - rain forest,clay,Entisol,NA,NAC,NA,57,Neotropics,Af,Tropical rainforest,1400,tropical,NA,NA,NA,NA,NA
106,Balikun,NAC,Xinjiang,China,43.8,93,NAC,NA,-0.7,NAC,NAC,684,NA,NAC,NAC,NA,NA,NA,58,Palearctic,BWk,Temperate mountain system,NA,extratropical,NA,Liu_2014_htpa,NA,Liu_2014_htpa,Maria
107,Balmoral,NAC,Canterbury,New Zealand,-42.87,172.75,198,NA,9.77,NAC,NAC,652,NA,clay loam,NAC,NA,NA,NA,59,Australasia,Cfb,Temperate oceanic forest,NA,extratropical,Arneth_1998_nepn; Arneth_1999_aoac,NA,1,Luyssaert_2007_cbob,Maria
108,BAN-01b_Banco IBP Plateau,NAC,Lagunes,Cote D'Ivoire,5.53,-4.03,50,NA,26.2,NAC,NAC,1683,NA,NAC,NAC,NA,NAC,NA,60,Afrotropics,Aw,Tropical rainforest,242,tropical,NA,NA,NA,NA,NA
109,BAN-02b_Banco IBP Valley,NAC,Lagunes,Cote D'Ivoire,5.53,-4.03,50,NA,26.2,NAC,NAC,1683,NA,NAC,NAC,NA,NAC,NA,60,Afrotropics,Aw,Tropical rainforest,243,tropical,NA,NA,NA,NA,NA
110,Banco plateau,NAC,Lagunes,Cote D'Ivoire,5.38,-4.03,100,elevation approx.- probably 50-100 m,26.2,NAC,NAC,2095,NA,NAC,NAC,Very sandy,NAC,NA,60,Afrotropics,Aw,Tropical rainforest,240,tropical,NA,Huttel 1975. Bernhard-Reversat et al. 1972; 1978,NA,NA,NA
111,Banco Valley,NAC,Lagunes,Cote D'Ivoire,5.38,-4.03,50,elevation approx.- probably 50-100 m,26.2,NAC,NAC,NAC,NA,NAC,NAC,Very sandy,NAC,NA,60,Afrotropics,Aw,Tropical rainforest,241,tropical,NA,Huttel 1975. Bernhard-Reversat et al. 1972; 1978,NA,NA,NA
112,BangorFACE,Bangor,Gwynedd,United Kingdom,53.233,-4.0167,15,NA,11,NAC,NAC,1034,NA,loam,NAC,NA,NA,NA,61,Palearctic,Cfb,Temperate oceanic forest,NA,extratropical,NA,NA,NA,NA,NA
113,Bannadpare,NAC,Karnataka,India,12.08,75.7,200,NA,27,NAC,NAC,5310,NA,NAC,NAC,Oxisol,NAC,Rain forest,62,IndoMalay,Am,Tropical rainforest,326,tropical,NA,"Rai and Proctor 1986a,b",NA,NA,NA
114,Baotianman Nature Reserve,Neixiang,Henan,China,33.483333,111.958333,1320,NA,15.2,NAC,NAC,900,NA,NAC,NAC,NA,NA,NA,63,Palearctic,Cwa,Subtropical mountain system,NA,extratropical,NA,NA,NA,NA,Maria
115,Baozuo 1,Ruo'ergai,Sichuan,China,33.47,103.46,NAC,NA,2.9,NAC,NAC,788,NA,NAC,NAC,NA,NA,NA,54,Palearctic,Dwb,Temperate mountain system,NA,extratropical,NA,Liu_2014_htpa,NA,Liu_2014_htpa,Maria
116,Baozuo 10,Ruo'ergai,Sichuan,China,33.48,103.54,NAC,NA,2.9,NAC,NAC,797,NA,NAC,NAC,NA,NA,NA,54,Palearctic,Dwb,Temperate mountain system,NA,extratropical,NA,Liu_2014_htpa,NA,Liu_2014_htpa,Maria
117,Baozuo 11,Ruo'ergai,Sichuan,China,33.53,103.66,NAC,NA,3.5,NAC,NAC,809,NA,NAC,NAC,NA,NA,NA,54,Palearctic,Dwb,Temperate mountain system,NA,extratropical,NA,Liu_2014_htpa,NA,Liu_2014_htpa,Maria
118,Baozuo 12,Ruo'ergai,Sichuan,China,33.57,103.32,NAC,NA,2.6,NAC,NAC,769,NA,NAC,NAC,NA,NA,NA,54,Palearctic,Dwb,Temperate mountain system,NA,extratropical,NA,Liu_2014_htpa,NA,Liu_2014_htpa,Maria
119,Baozuo 13,Ruo'ergai,Sichuan,China,33.45,103.5,NAC,NA,2.9,NAC,NAC,794,NA,NAC,NAC,NA,NA,NA,54,Palearctic,Dwb,Temperate mountain system,NA,extratropical,NA,Liu_2014_htpa,NA,Liu_2014_htpa,Maria
120,Baozuo 2,Ruo'ergai,Sichuan,China,33.35,103.41,NAC,NA,2.7,NAC,NAC,788,NA,NAC,NAC,NA,NA,NA,54,Palearctic,Dwb,Temperate mountain system,NA,extratropical,NA,Liu_2014_htpa,NA,Liu_2014_htpa,Maria
121,Baozuo 3,Ruo'ergai,Sichuan,China,33.32,103.61,NAC,NA,3.5,NAC,NAC,811,NA,NAC,NAC,NA,NA,NA,54,Palearctic,Dwb,Subtropical mountain system,NA,extratropical,NA,Liu_2014_htpa,NA,Liu_2014_htpa,Maria
122,Baozuo 4,Ruo'ergai,Sichuan,China,33.37,103.36,NAC,NA,2.7,NAC,NAC,781,NA,NAC,NAC,NA,NA,NA,54,Palearctic,Dwb,Temperate mountain system,NA,extratropical,NA,Liu_2014_htpa,NA,Liu_2014_htpa,Maria
123,Baozuo 5,Ruo'ergai,Sichuan,China,33.43,103.49,NAC,NA,2.9,NAC,NAC,794,NA,NAC,NAC,NA,NA,NA,54,Palearctic,Dwb,Temperate mountain system,NA,extratropical,NA,Liu_2014_htpa,NA,Liu_2014_htpa,Maria
124,Baozuo 6,Ruo'ergai,Sichuan,China,33.4,103.37,NAC,NA,2.7,NAC,NAC,782,NA,NAC,NAC,NA,NA,NA,54,Palearctic,Dwb,Temperate mountain system,NA,extratropical,NA,Liu_2014_htpa,NA,Liu_2014_htpa,Maria
125,Baozuo 7,Ruo'ergai,Sichuan,China,33.38,103.5,NAC,NA,2.9,NAC,NAC,797,NA,NAC,NAC,NA,NA,NA,54,Palearctic,Dwb,Temperate mountain system,NA,extratropical,NA,Liu_2014_htpa,NA,Liu_2014_htpa,Maria
126,Baozuo 8,Ruo'ergai,Sichuan,China,33.33,103.47,NAC,NA,3.3,NAC,NAC,795,NA,NAC,NAC,NA,NA,NA,54,Palearctic,Dwb,Temperate mountain system,NA,extratropical,NA,Liu_2014_htpa,NA,Liu_2014_htpa,Maria
127,Baozuo 9,Ruo'ergai,Sichuan,China,33.62,103.39,NAC,NA,2.6,NAC,NAC,776,NA,NAC,NAC,NA,NA,NA,54,Palearctic,Dwb,Temperate mountain system,NA,extratropical,NA,Liu_2014_htpa,NA,Liu_2014_htpa,Maria
128,"Baozuo Cupressus, Sabina",Ruo'ergai,Sichuan,China,33.45,103.39,NAC,NA,2.7,NAC,NAC,782,NA,NAC,NAC,NA,NA,NA,54,Palearctic,Dwb,Temperate mountain system,NA,extratropical,NA,Liu_2014_htpa,NA,Liu_2014_htpa,Maria
129,"Barama, NW Guyana",NAC,Barima-Waini,Guyana,7.7,-59.943,NAC,NA,NAC,NAC,NAC,2599,NA,NAC,NAC,NA,NAC,NA,64,Neotropics,Af,Tropical rainforest,1357,tropical,NA,NA,NA,NA,NA
130,Barro Colorado Island chronosequence,NA,Panama,Panama,9.15,-79.833,NAC,NA,26,NAC,NAC,2600,NA,NAC,NAC,NA,NAC,NA,7,Neotropics,Am,Tropical moist forest,277,tropical,NA,NA,NA,NA,NA
131,Barro Colorado Island CTFS-ForestGEO plot,NA,Panama,Panama,9.1543,-79.8461,130,"lowland, on a 1500-ha island in Gatun Lake",27.4,NAC,NAC,2167,Dry season length 3.54 mths; Mean maximum dry season moisture deficit (mm) =514,NAC,ultisol,NA,terra firma,NA,7,Neotropics,Am,Tropical moist forest,470,tropical,Meakem_2017_rots,"additional references: Foster 1982, Anderson-Teixeira et al. 2015 (and references therein)",NA,NA,NA
132,Bartlett,NAC,New Hampshire,United States of America,44.06,-71.29,272,NA,6.93,NAC,NAC,1270,NA,loam,NAC,NA,NA,NA,65,Nearctic,Dfb,Temperate mountain system,NA,extratropical,NA,Ameriflux,1,Luyssaert_2007_cbob,Maria
133,Battle Ax 1,NAC,Oregon,United States of America,44.7782,-122.1476,1284,NA,NAC,NAC,NAC,NAC,NA,loam,NAC,NA,NA,NA,66,Nearctic,Csb,Temperate mountain system,NA,extratropical,NA,Sun et al 2004,1,Luyssaert_2007_cbob,Maria
134,Battle Ax 2,NAC,Oregon,United States of America,44.8094,-122.2324,1007,NA,NAC,NAC,NAC,NAC,NA,loam,NAC,NA,NA,NA,66,Nearctic,Csb,Temperate mountain system,NA,extratropical,NA,Sun et al 2004,1,Luyssaert_2007_cbob,Maria
135,Battle Ax 3,NAC,Oregon,United States of America,44.8094,-122.2324,900,NA,NAC,NAC,NAC,NAC,NA,loam,NAC,NA,NA,NA,66,Nearctic,Csb,Temperate mountain system,NA,extratropical,NA,Sun et al 2004,1,Luyssaert_2007_cbob,Maria
136,Battle Ax 4,NAC,Oregon,United States of America,44.8285,-122.2429,745,NA,NAC,NAC,NAC,NAC,NA,loam,NAC,NA,NA,NA,66,Nearctic,Csb,Temperate mountain system,NA,extratropical,NA,Sun et al 2004,1,Luyssaert_2007_cbob,Maria
137,Battle Ax 5,NAC,Oregon,United States of America,44.836,-122.2246,1027,NA,NAC,NAC,NAC,NAC,NA,loam,NAC,NA,NA,NA,66,Nearctic,Csb,Temperate mountain system,NA,extratropical,NA,Sun et al 2004,1,Luyssaert_2007_cbob,Maria
138,Battle Ax 6,NAC,Oregon,United States of America,44.8386,-122.2342,987,NA,NAC,NAC,NAC,NAC,NA,loam,NAC,NA,NA,NA,66,Nearctic,Csb,Temperate mountain system,NA,extratropical,NA,Sun et al 2004,1,Luyssaert_2007_cbob,Maria
139,Baxi 1,Ruo'ergai,Sichuan,China,33.38,103.32,NAC,NA,2.7,NAC,NAC,776,NA,NAC,NAC,NA,NA,NA,54,Palearctic,Dwb,Temperate mountain system,NA,extratropical,NA,Liu_2014_htpa,NA,Liu_2014_htpa,Maria
140,Baxi 2,Ruo'ergai,Sichuan,China,33.53,103.34,NAC,NA,2.6,NAC,NAC,772,NA,NAC,NAC,NA,NA,NA,54,Palearctic,Dwb,Temperate mountain system,NA,extratropical,NA,Liu_2014_htpa,NA,Liu_2014_htpa,Maria
141,Baxi 3,Ruo'ergai,Sichuan,China,33.55,103.3,NAC,NA,2.6,NAC,NAC,767,NA,NAC,NAC,NA,NA,NA,54,Palearctic,Dwb,Temperate mountain system,NA,extratropical,NA,Liu_2014_htpa,NA,Liu_2014_htpa,Maria
142,Bayreuth/Weiden Brunnen,NAC,Bayern,Germany,50.15,11.87,775,NA,5.84,NAC,NAC,1037.17,NA,clay loam,NAC,NA,NA,NA,67,Palearctic,Cfb,Temperate oceanic forest,NA,extratropical,NA,CD Carbodata,1,Luyssaert_2007_cbob,Maria
143,BCI Putz & Milton,NAC,Panama,Panama,9.17,-79.85,100,NA,26.26,NAC,NAC,2912,Dry season length 3.54 mths,NAC,ultisol,NA,terra firma,NA,7,Neotropics,Am,Tropical moist forest,469,tropical,NA,NA,NA,NA,NA
144,BCI.poachers1,NAC,Colon,Panama,9.28,-79.8,NAC,NA,NAC,NAC,NAC,2617,rainfall seasonality index SR (%) = 0.34,NAC,Acrisol,NA,NAC,NA,7,Neotropics,Am,Tropical rainforest,1170,tropical,NA,NA,NA,NA,NA
145,BCI.poachers2,NAC,Colon,Panama,9.28,-79.8,NAC,NA,NAC,NAC,NAC,2617,rainfall seasonality index SR (%) = 0.34,NAC,Acrisol,NA,NAC,NA,7,Neotropics,Am,Tropical rainforest,1171,tropical,NA,NA,NA,NA,NA
146,BCI.poachers3,NAC,Colon,Panama,9.28,-79.8,NAC,NA,NAC,NAC,NAC,2617,rainfall seasonality index SR (%) = 0.34,NAC,Acrisol,NA,NAC,NA,7,Neotropics,Am,Tropical rainforest,1172,tropical,NA,NA,NA,NA,NA
147,BCI.poachers4,NAC,Colon,Panama,9.28,-79.8,NAC,NA,NAC,NAC,NAC,2617,rainfall seasonality index SR (%) = 0.34,NAC,Acrisol,NA,NAC,NA,7,Neotropics,Am,Tropical rainforest,1173,tropical,NA,NA,NA,NA,NA
148,BDFFP FASTIO,Manaus,Amazonas,Brazil,-2.333333333,-60,NAC,coordinates are approximate. Better location could be extracted from map in Lucas (1998),NAC,NAC,NAC,2600,NA,NAC,Latosol,yellow latsiols,NAC,NA,68,Neotropics,Af,Tropical rainforest,75,tropical,Laurence_2009_lvia,NA,NA,NA,NA
149,BDFFP Fazenda Agroman,Manaus,Amazonas,Brazil,-2.333333333,-60,NAC,coordinates are approximate. Better location could be extracted from map in Lucas (1998),NAC,NAC,NAC,2600,NA,NAC,Latosol,yellow latsiols,NAC,NA,68,Neotropics,Af,Tropical rainforest,80,tropical,Laurence_2009_lvia,NA,NA,NA,NA
150,BDFFP Fazenda Cabo Frio,Manaus,Amazonas,Brazil,-2.4,-60,100,NA,26.75,NAC,NAC,2305,Dry season length 3.05 mths,NAC,Ultisol,NA,terra firma,NA,68,Neotropics,Af,Tropical rainforest,101,tropical,Malhi_2004_tacw,"Sizer 1992; Chambers, Pers. commun",NA,NA,NA
151,BDFFP Fazenda Dimona,Manaus,Amazonas,Brazil,-2.33333,-60.083333,100,NA,26.75,NAC,NAC,2305,Dry season length 3.05 mths; rainfall seasonality index SR (%) = 0.49,clay,Ultisol/older oxisol/ Ferralsol,NA,terra firma,NA,68,Neotropics,Af,Tropical rainforest,99,tropical,Clark_2001_nppi; Malhi_2004_tacw,"Chambers, Pers. Commun; ttp://pdbff.inpa.gov.br/area3p.htm#",NA,NA,NA
152,BDFFP Fazenda Esteio,Manaus,Amazonas,Brazil,-2.41667,-59.76667,NAC,coordinates are approximate. Better location could be extracted from map in Lucas (1998),NAC,NAC,NAC,2600,NA,NAC,Latosol,yellow latsiols,NAC,NA,68,Neotropics,Af,Tropical rainforest,78,tropical,Laurence_2009_lvia,NA,NA,NA,NA
153,BDFFP Fazenda Gaviao,Manaus,Amazonas,Brazil,-2.4,-59.9,100,NA,26.7,NAC,NAC,2233.5,Dry season length 3.05 mths,NAC,Ultisol,NA,terra firma,NA,68,Neotropics,Af,Tropical rainforest,102,tropical,Malhi_2004_tacw,"Chambers, Pers. commun",NA,NA,NA
154,BDFFP Fazenda Maringa,Manaus,Amazonas,Brazil,-2.333333333,-60,NAC,coordinates are approximate. Better location could be extracted from map in Lucas (1998),NAC,NAC,NAC,2600,NA,NAC,Latosol,yellow latsiols,NAC,NA,68,Neotropics,Af,Tropical rainforest,76,tropical,Laurence_2009_lvia,NA,NA,NA,NA
155,BDFFP Fazenda Porto Alegre,Manaus,Amazonas,Brazil,-2.348,-60,NAC,coordinates are approximate. Better location could be extracted from map in Lucas (1998),NAC,NAC,NAC,2524,NA,NAC,Latosol,yellow latsiols,terra firma,NA,68,Neotropics,Af,Tropical rainforest,77,tropical,Laurence_2009_lvia,NA,NA,NA,NA
156,BDFFP Fazenda Porto Alegre 3304,Manaus,Amazonas,Brazil,-2.348,-60,90,NA,27.2,NAC,NAC,1771,Dry season length 3.05 mths,NAC,Latosol,NA,terra firma,NA,68,Neotropics,Af,Tropical rainforest,86,tropical,Klinge_1975_basi,"additional refs: Klinge 1973,1976,1978; Klinge & Rodrigues 1968",NA,NA,NA
157,BDFFP Florestal,Manaus,Amazonas,Brazil,-2.4,-59.9,100,NA,26.8,NAC,NAC,2305,Dry season length 3.05 mths,NAC,older oxisol,NA,terra firma,NA,68,Neotropics,Af,Tropical rainforest,104,tropical,Malhi_2004_tacw,NA,NA,NA,NA
158,BDFFP km 67,Manaus,Amazonas,Brazil,-2.333333333,-60,NAC,coordinates are approximate. Better location could be extracted from map in Lucas (1998),NAC,NAC,NAC,2600,NA,NAC,Latosol,yellow latsiols,NAC,NA,68,Neotropics,Af,Tropical rainforest,79,tropical,Laurence_2009_lvia,NA,NA,NA,NA
159,BDFFP Reserve,NAC,Amazonas,Brazil,-2.5,-60,NAC,NA,NAC,NAC,NAC,2470,rainfall seasonality index SR (%) = 0.32,NAC,Ferralsol,NA,NAC,NA,68,Neotropics,Af,Tropical rainforest,1174,tropical,NA,NA,NA,NA,NA
160,Bebedero,NAC,Guanacaste,Costa Rica,10.8883,-85.6,280,NA,25.9,NAC,NAC,1613,NA,NAC,Entisol,NA,NAC,NA,69,Neotropics,Aw,Tropical dry forest,1261,tropical,NA,NA,NA,NA,NA
161,Belgium,NAC,Antwerp,Belgium,51.17,5,NI,NA,8.6,NAC,NAC,850,NA,loam,NAC,NA,NA,NA,70,Palearctic,Cfb,Temperate oceanic forest,NA,extratropical,Esser_1997_weab,"Esser et al 1997 obs_1043,",1,Luyssaert_2007_cbob,Maria
162,Belt Woods,NAC,Maryland,United States of America,38.906743,-76.7604,NAC,NA,NAC,NAC,NAC,NAC,NA,NAC,NAC,NA,NA,NA,71,Nearctic,Cfa,Subtropical humid forest,NA,extratropical,NA,NA,NA,NA,Maria
163,Bhabar Shisham plantation chronosequence,NAC,Nainital,India,29.17,79.36,NAC,NA,23.3333,4.5,25.4,1415,NA,sandy loam,NAC,The soil is coarse textured and nutrient poor with low water table.,NA,NA,72,IndoMalay,Cwa,Tropical moist forest,NA,extratropical,NA,NA,NA,NA,NA
164,Bianba,Changdu,Tibet,China,30.9,94.7,NAC,NA,1,NAC,NAC,527,NA,NAC,NAC,NA,NA,NA,73,Palearctic,ET,Subtropical mountain system,NA,extratropical,NA,Liu_2014_htpa,NA,Liu_2014_htpa,Maria
165,Big Butte Springs 1,NAC,Oregon,United States of America,42.5853,-122.4062,1026,NA,NAC,NAC,NAC,NAC,NA,clay loam,NAC,NA,NA,NA,74,Nearctic,Csb,Temperate mountain system,NA,extratropical,NA,Sun et al 2004,1,Luyssaert_2007_cbob,Maria
166,Big Butte Springs 2,NAC,Oregon,United States of America,42.586,-122.4478,931,NA,NAC,NAC,NAC,NAC,NA,clay loam,NAC,NA,NA,NA,74,Nearctic,Csb,Temperate mountain system,NA,extratropical,NA,Sun et al 2004,1,Luyssaert_2007_cbob,Maria
167,Big Butte Springs 3,NAC,Oregon,United States of America,42.5601,-122.4966,834,NA,NAC,NAC,NAC,NAC,NA,clay loam,NAC,NA,NA,NA,74,Nearctic,Csb,Temperate mountain system,NA,extratropical,NA,Sun et al 2004,1,Luyssaert_2007_cbob,Maria
168,Big Butte Springs 4,NAC,Oregon,United States of America,42.6231,-122.4367,1024,NA,NAC,NAC,NAC,NAC,NA,clay loam,NAC,NA,NA,NA,74,Nearctic,Csb,Temperate mountain system,NA,extratropical,NA,Sun et al 2004,1,Luyssaert_2007_cbob,Maria
169,Big Butte Springs 5,NAC,Oregon,United States of America,42.5791,-122.4414,938,NA,NAC,NAC,NAC,NAC,NA,clay loam,NAC,NA,NA,NA,74,Nearctic,Csb,Temperate mountain system,NA,extratropical,NA,Sun et al 2004,1,Luyssaert_2007_cbob,Maria
170,Big Butte Springs 6,NAC,Oregon,United States of America,42.6025,-122.4755,969,NA,NAC,NAC,NAC,NAC,NA,clay loam,NAC,NA,NA,NA,74,Nearctic,Csb,Temperate mountain system,NA,extratropical,NA,Sun et al 2004,1,Luyssaert_2007_cbob,Maria
171,Biliuti 1,Bu'erjin,Xinjiang,China,47.7,86.9,NAC,NA,-2.1,NAC,NAC,672,NA,NAC,NAC,NA,NA,NA,75,Palearctic,BSk,Temperate desert,NA,extratropical,NA,Liu_2014_htpa,NA,Liu_2014_htpa,Maria
172,Biliuti 2,Bu'erjin,Xinjiang,China,48,86.9,NAC,NA,-3.5,NAC,NAC,863,NA,NAC,NAC,NA,NA,NA,76,Palearctic,BSk,Temperate desert,NA,extratropical,NA,Liu_2014_htpa,NA,Liu_2014_htpa,Maria
173,Bilos,NAC,Gironde,France,44.493889,-0.955944,NI,NA,12.8,NAC,NAC,930,NA,sandy loam,NAC,NA,NA,NA,77,Palearctic,Cfb,Temperate oceanic forest,NA,extratropical,Kowalski_2003_tacb; Kowalski_2004_pcoc,NA,1,Luyssaert_2007_cbob,Maria
174,Bilos Clear,NAC,Lot-et-Garonne,France,44.495278,0.9525,NI,NA,12.8,NAC,NAC,930,NA,clay loam,NAC,NA,NA,NA,78,Palearctic,Cfb,Temperate oceanic forest,NA,extratropical,Kowalski_2003_tacb; Kowalski_2004_pcoc,NA,1,Luyssaert_2007_cbob,Maria
175,Bily Kriz Forest,NAC,Moravskoslezsky Kraj,Czech Republic,49.5,18.54,908,NA,7.87,NAC,NAC,1244,NA,clay loam,NAC,NA,NA,NA,79,Palearctic,Dfb,Temperate mountain system,NA,extratropical,CarboEurope-IP_2006_cd,NA,1,Luyssaert_2007_cbob,Maria
176,Biology of Forest Growth experimental plantation in Pierces Creek Forest,Canberra,Australian Capital Territory,Australia,-35.35,148.933,630,NA,13.5,NAC,NAC,791,NA,clay loam,NAC,NA,NA,NA,80,Australasia,Cfb,Temperate mountain system,NA,extratropical,Ryan_1996_ffwa,NA,1,Luyssaert_2007_cbob,Maria
177,Bionte (Luizao),NAC,Amazonas,Brazil,-2.63,-60.17,73,NA,27.08,NAC,NAC,2272,NA,NAC,NAC,NA,NAC,NA,68,Neotropics,Af,Tropical rainforest,1377,tropical,NA,Luizao 1989 [69],NA,NA,NA
178,Bionte 1,Manaus,Amazonas,Brazil,-2.63,-60.17,73,NA,27.1,NAC,NAC,2381,Dry season length 3 mths,NAC,older oxisol,NA,terra firma,NA,68,Neotropics,Af,Tropical rainforest,105,tropical,NA,NA,NA,NA,NA
179,Bionte 2,Manaus,Amazonas,Brazil,-2.63,-60.17,73,NA,27.1,NAC,NAC,2381,Dry season length 3 mths,NAC,older oxisol,NA,terra firma,NA,68,Neotropics,Af,Tropical rainforest,106,tropical,NA,NA,NA,NA,NA
180,Bionte 4,Manaus,Amazonas,Brazil,-2.63,-60.17,73,NA,27.1,NAC,NAC,2381,Dry season length 3 mths,NAC,older oxisol,NA,terra firma,NA,68,Neotropics,Af,Tropical rainforest,107,tropical,NA,NA,NA,NA,NA
181,Bionte averaged (Chao2009),NAC,Amazonas,Brazil,-2.63,-60.17,NAC,NA,NAC,NAC,NAC,NAC,NA,NAC,NAC,NA,NAC,NA,68,Neotropics,Af,Tropical rainforest,1420,tropical,NA,Summers (1998) cited in Chambers et al. (2000),NA,NA,NA
182,Bionte T4 B1 SB3,Manaus,Amazonas,Brazil,-2.63,-60.17,73,NA,27.1,NAC,NAC,2381,Dry season length 3 mths,NAC,older oxisol,NA,terra firma,NA,68,Neotropics,Af,Tropical rainforest,108,tropical,NA,NA,NA,NA,NA
183,Bionte T4 B2 SB1,Manaus,Amazonas,Brazil,-2.63,-60.17,73,NA,27.1,NAC,NAC,2381,Dry season length 3 mths,NAC,older oxisol,NA,terra firma,NA,68,Neotropics,Af,Tropical rainforest,110,tropical,NA,NA,NA,NA,NA
184,Bionte T4 B4 SB4,Manaus,Amazonas,Brazil,-2.63,-60.17,73,NA,27.1,NAC,NAC,2381,Dry season length 3 mths,NAC,older oxisol,NA,terra firma,NA,68,Neotropics,Af,Tropical rainforest,109,tropical,NA,NA,NA,NA,NA
185,Bisley,NAC,Puerto Rico,United States of America,18.32,-65.82,355,NA,NAC,NAC,NAC,3500,NA,NAC,NAC,NA,NAC,Secondary tabonuco forest,81,Neotropics,Am,Tropical rainforest,360,tropical,NA,Scatena et al 1996. Biotropica 28:424-440.,NA,NA,NA
186,Bissiga B12,NAC,Oubritenga,Burkina Faso,12.6833,-1.1667,300,NA,NAC,16,40,632,dry season 5-7 months,NAC,ferric luvisol,"ferric luvisol, ferruginous",NAC,NA,82,Afrotropics,BSh,Tropical dry forest,322,tropical,NA,NA,NA,NA,NA
187,Bitagron,NAC,Sipaliwini,Suriname,5.079,-56.201,NAC,NA,NAC,NAC,NAC,2151,NA,NAC,NAC,NA,NAC,NA,83,Neotropics,Af,Tropical rainforest,1369,tropical,NA,NA,NA,NA,NA
188,BKK-01a_Boukoko,NAC,Lobaye,Central African Republic,3.83,18,487,NA,23.7,NAC,NAC,1677,NA,NAC,NAC,NA,NAC,NA,84,Afrotropics,Aw,Tropical rainforest,211,tropical,NA,NA,NA,NA,NA
189,Black Rock Forest Chronosequence,NAC,New York,United States of America,41.4,-74.017,280,NA,10.57,-2.7,23.4,1206,NA,loam,NAC,NA,NA,NA,85,Nearctic,Dfa,Temperate mountain system,NA,extratropical,NA,NA,NA,NA,NA
190,"Black Spruce Muskeg, Site 1",NAC,Alaska,United States of America,64,-148,166.7,NA,-3.441666921,NAC,NAC,376,NA,NAC,Inceptisol,Inceptisol. Pergelic Cryaquept.,NA,NA,86,Nearctic,Dfc,Boreal mountain system,NA,extratropical,NA,NA,NA,NA,NA
191,"Black Spruce Muskeg, Site 2",NAC,Alaska,United States of America,64,-148,469.7,NA,-3.441666921,NAC,NAC,376,NA,NAC,Inceptisol,Inceptisol. Pergelic Cryaquept.,NA,NA,86,Nearctic,Dfc,Boreal mountain system,NA,extratropical,NA,NA,NA,NA,NA
192,Black Spruce-Feather Moss Site,NAC,Alaska,United States of America,64,-148,NAC,NA,-3.441666921,NAC,NAC,376,NA,NAC,Inceptisol,Inceptisol. Pergelic Cryaquept.,NA,NA,86,Nearctic,Dfc,Boreal mountain system,NA,extratropical,NA,NA,NA,NA,NA
193,Blodgett Forest,NAC,California,United States of America,38.88,-120.61,1315,NA,11.45,NAC,NAC,1540.33,NA,clay loam,NAC,NA,NA,NA,87,Nearctic,Csb,Subtropical mountain system,NA,extratropical,Misson_2005_iorf; Law_2002_ecoc,NA,1,Luyssaert_2007_cbob,Maria
194,Blue Mountain 1,NAC,Oregon,United States of America,43.6776,-122.916,654,NA,NAC,NAC,NAC,NAC,NA,clay loam,NAC,NA,NA,NA,88,Nearctic,Csb,Temperate mountain system,NA,extratropical,NA,Sun et al 2004,1,Luyssaert_2007_cbob,Maria
195,Blue Mountain 2,NAC,Oregon,United States of America,43.7362,-122.9288,449,NA,NAC,NAC,NAC,NAC,NA,clay loam,NAC,NA,NA,NA,88,Nearctic,Csb,Temperate mountain system,NA,extratropical,NA,Sun et al 2004,1,Luyssaert_2007_cbob,Maria
196,Blue Mountain 3,NAC,Oregon,United States of America,43.6915,-122.9297,543,NA,NAC,NAC,NAC,NAC,NA,clay loam,NAC,NA,NA,NA,88,Nearctic,Csb,Temperate mountain system,NA,extratropical,NA,Sun et al 2004,1,Luyssaert_2007_cbob,Maria
197,Blue Mountain 4,NAC,Oregon,United States of America,43.6943,-122.8992,803,NA,NAC,NAC,NAC,NAC,NA,clay loam,NAC,NA,NA,NA,88,Nearctic,Csb,Temperate mountain system,NA,extratropical,NA,Sun et al 2004,1,Luyssaert_2007_cbob,Maria
198,Blue Mountain 5,NAC,Oregon,United States of America,43.7037,-122.9292,876,NA,NAC,NAC,NAC,NAC,NA,clay loam,NAC,NA,NA,NA,88,Nearctic,Csb,Temperate mountain system,NA,extratropical,NA,Sun et al 2004,1,Luyssaert_2007_cbob,Maria
199,Blue Mountain 6,NAC,Oregon,United States of America,43.7062,-122.9356,704,NA,NAC,NAC,NAC,NAC,NA,clay loam,NAC,NA,NA,NA,88,Nearctic,Csb,Temperate mountain system,NA,extratropical,NA,Sun et al 2004,1,Luyssaert_2007_cbob,Maria
200,Blue Mtn. Mor Ridge,NAC,Saint Andrew,Jamaica,18.08,-76.65,1615,montane,15.8,NAC,NAC,2230,NA,NAC,NAC,mor,NAC,Tropical montane,89,Neotropics,Aw,Tropical mountain system,340,tropical,NA,"Tanner 1977, 1980a,b,1985",NA,NA,NA
201,Blue Mtn. Mull Ridge,NAC,Saint Andrew,Jamaica,18.08,-76.65,1600,montane,15.5,NAC,NAC,2230,NA,NAC,NAC,mull,NAC,Tropical montane,89,Neotropics,Aw,Tropical mountain system,341,tropical,NA,"Tanner 1977, 1980a,b,1985",NA,NA,NA
202,Blue Mtn.Gap Forest,NAC,Saint Andrew,Jamaica,18.08,-76.65,1590,montane,15.5,NAC,NAC,2230,NA,NAC,NAC,NA,NAC,Tropical montane,89,Neotropics,Aw,Tropical mountain system,342,tropical,NA,"Tanner 1977, 1980a,b,1985",NA,NA,NA
203,Blue Mtn.Wet Slope Forest,NAC,Saint Andrew,Jamaica,18.08,-76.65,1570,montane,15.3,NAC,NAC,2230,NA,NAC,NAC,NA,NAC,Tropical montane,89,Neotropics,Aw,Tropical mountain system,343,tropical,NA,"Tanner 1977, 1980a,b,1985",NA,NA,NA
204,Bogi 1 (PA),NAC,Orellana,Ecuador,-0.7,-76.48,271,NA,24.9,NAC,NAC,3152,Dry season length 0.31 mths,NAC,inceptisol,NA,terra firma,NA,38,Neotropics,Af,Tropical rainforest,125,tropical,NA,NA,NA,NA,NA
205,Bogi 2 (PB),NAC,Orellana,Ecuador,-0.7,-76.47,270,NA,25,NAC,NAC,3140,Dry season length 0.31 mths,NAC,inceptisol,NA,terra firma,NA,38,Neotropics,Af,Tropical rainforest,126,tropical,NA,NA,NA,NA,NA
206,"Bomi Cupressus, Sabina",Changdu,Tibet,China,30.1,95,NAC,NA,11.2,NAC,NAC,582,NA,NAC,NAC,NA,NA,NA,90,Palearctic,Dwb,Subtropical mountain system,NA,extratropical,NA,Liu_2014_htpa,NA,Liu_2014_htpa,Maria
207,"Bomi Picea, Abies 1",NAC,Tibet,China,29.92,95.88,NAC,NA,9,NAC,NAC,850,NA,NAC,NAC,NA,NA,NA,91,Palearctic,Dwc,Subtropical mountain system,NA,extratropical,NA,Liu_2014_htpa,NA,Liu_2014_htpa,Maria
208,"Bomi Picea, Abies 2",Changdu,Tibet,China,29.8,95.7,NAC,NA,6.6,NAC,NAC,850,NA,NAC,NAC,NA,NA,NA,91,Palearctic,Dwc,Subtropical mountain system,NA,extratropical,NA,Liu_2014_htpa,NA,Liu_2014_htpa,Maria
209,Bomi Quercus 1,Changdu,Tibet,China,29.7,96.1,NAC,NA,6.4,NAC,NAC,850,NA,NAC,NAC,NA,NA,NA,92,Palearctic,ET,Subtropical mountain system,NA,extratropical,NA,Liu_2014_htpa,NA,Liu_2014_htpa,Maria
210,Bomi Quercus 2,Changdu,Tibet,China,29.8,95.7,NAC,NA,7.7,NAC,NAC,850,NA,NAC,NAC,NA,NA,NA,91,Palearctic,Dwc,Subtropical mountain system,NA,extratropical,NA,Liu_2014_htpa,NA,Liu_2014_htpa,Maria
211,Bonanza 5A,NAC,Alaska,United States of America,64.75,-148.25,133,NA,-3.5,NAC,NAC,269,NA,clay loam,NAC,NA,NA,NA,12,Nearctic,Dfc,Boreal tundra woodland,NA,extratropical,Ruess_2003_cfrd,NA,1,Luyssaert_2007_cbob,Maria
212,Bonanza 5C,NAC,Alaska,United States of America,64.75,-148.25,129,NA,-3.5,NAC,NAC,269,NA,clay loam,NAC,NA,NA,NA,12,Nearctic,Dfc,Boreal tundra woodland,NA,extratropical,Ruess_2003_cfrd,NA,1,Luyssaert_2007_cbob,Maria
213,Bonanza 5D,NAC,Alaska,United States of America,64.75,-148.25,NI,NA,-3.5,NAC,NAC,269,NA,clay loam,NAC,NA,NA,NA,12,Nearctic,Dfc,Boreal tundra woodland,NA,extratropical,Ruess_2003_cfrd,NA,1,Luyssaert_2007_cbob,Maria
214,Bonanza 6.1,NAC,Alaska,United States of America,64.8,-147.87,580,NA,-3.3,NAC,NAC,269,NA,clay loam,NAC,NA,NA,NA,12,Nearctic,Dfc,Boreal tundra woodland,NA,extratropical,Vogel_2005_sarr,NA,1,Luyssaert_2007_cbob,Maria
215,Bonanza 6.2,NAC,Alaska,United States of America,64.8,-147.87,184,NA,-3.3,NAC,NAC,269,NA,clay loam,NAC,NA,NA,NA,12,Nearctic,Dfc,Boreal tundra woodland,NA,extratropical,Vogel_2005_sarr,NA,1,Luyssaert_2007_cbob,Maria
216,Bonanza 6.3,NAC,Alaska,United States of America,64.8,-147.87,124,NA,-3.3,NAC,NAC,269,NA,clay loam,NAC,NA,NA,NA,12,Nearctic,Dfc,Boreal tundra woodland,NA,extratropical,Vogel_2005_sarr,NA,1,Luyssaert_2007_cbob,Maria
217,Bonanza Creek/Standard Creek,Fairbanks,Alaska,United States of America,64.783333,-148.375,NAC,*took average of two coordinates,NAC,NAC,NAC,NAC,NA,NAC,NAC,NA,NA,NA,12,Nearctic,Dfc,Boreal tundra woodland,NA,extratropical,NA,NA,NA,NA,Maria
218,Bonanza FP2,NAC,Alaska,United States of America,64.75,-148.25,NI,NA,-3.5,NAC,NAC,269,NA,clay loam,NAC,NA,NA,NA,12,Nearctic,Dfc,Boreal tundra woodland,NA,extratropical,Ruess_1996_cofr,Olsen et al 2001,1,Luyssaert_2007_cbob,Maria
219,Bonanza FP3,NAC,Alaska,United States of America,64.75,-148.25,NI,NA,-3.5,NAC,NAC,269,NA,clay loam,NAC,NA,NA,NA,12,Nearctic,Dfc,Boreal tundra woodland,NA,extratropical,Ruess_1996_cofr,Olsen et al 2001,1,Luyssaert_2007_cbob,Maria
220,Bonanza FP4,NAC,Alaska,United States of America,64.75,-148.25,NI,NA,-3.5,NAC,NAC,269,NA,clay loam,NAC,NA,NA,NA,12,Nearctic,Dfc,Boreal tundra woodland,NA,extratropical,Ruess_1996_cofr,Olsen et al 2001,1,Luyssaert_2007_cbob,Maria
221,Bonanza FP5,NAC,Alaska,United States of America,64.75,-148.25,NI,NA,-3.5,NAC,NAC,269,NA,clay loam,NAC,NA,NA,NA,12,Nearctic,Dfc,Boreal tundra woodland,NA,extratropical,Ruess_1996_cofr,Olsen et al 2001,1,Luyssaert_2007_cbob,Maria
222,Bonanza UP2,NAC,Alaska,United States of America,64.75,-148.25,NI,NA,-3.5,NAC,NAC,269,NA,clay loam,NAC,NA,NA,NA,12,Nearctic,Dfc,Boreal tundra woodland,NA,extratropical,Ruess_1996_cofr,Olsen et al 2001,1,Luyssaert_2007_cbob,Maria
223,Bonanza UP3,NAC,Alaska,United States of America,64.75,-148.25,NI,NA,-3.5,NAC,NAC,269,NA,clay loam,NAC,NA,NA,NA,12,Nearctic,Dfc,Boreal tundra woodland,NA,extratropical,Ruess_1996_cofr,Olsen et al 2001,1,Luyssaert_2007_cbob,Maria
224,Boqueron,NAC,Colon,Panama,9.333333,-79.833333,NAC,on Lago Alajuela in Chagres National Park. 4 month long dry season from Dec-April,NAC,NAC,NAC,2650,NA,silty loam,NAC,Light grey surface,NAC,NA,7,Neotropics,Am,Tropical rainforest,278,tropical,NA,NA,NA,NA,NA
225,Boreal Soil and Air Warming Experiment site,Thompson,Manitoba,Canada,55.88,-98.33,NAC,NA,-3,NAC,NAC,510,NA,NAC,NAC,NA,NA,NA,93,Nearctic,Dfc,Boreal coniferous forest,NA,extratropical,NA,NA,NA,NA,NA
226,BOREAS NOBS-1850,NAC,Manitoba,Canada,55.879,-98.48,NAC,NA,NAC,NAC,NAC,NAC,NA,NAC,NAC,NA,NA,NA,93,Nearctic,Dfc,Boreal coniferous forest,NA,extratropical,NA,NA,NA,NA,NA
227,BOREAS University of California-1850,NAC,Manitoba,Canada,55.879,-98.484,NAC,NA,NAC,NAC,NAC,NAC,NA,NAC,NAC,NA,NA,NA,93,Nearctic,Dfc,Boreal coniferous forest,NA,extratropical,NA,NA,NA,NA,NA
228,BOREAS University of California-1930,NAC,Manitoba,Canada,55.906,-98.525,NAC,NA,NAC,NAC,NAC,NAC,NA,NAC,NAC,NA,NA,NA,93,Nearctic,Dfc,Boreal coniferous forest,NA,extratropical,NA,NA,NA,NA,NA
229,BOREAS University of California-1964,NAC,Manitoba,Canada,55.912,-98.382,NAC,NA,NAC,NAC,NAC,NAC,NA,NAC,NAC,NA,NA,NA,93,Nearctic,Dfc,Boreal coniferous forest,NA,extratropical,NA,NA,NA,NA,NA
230,BOREAS University of California-1981,NAC,Manitoba,Canada,55.863,-98.485,NAC,NA,NAC,NAC,NAC,NAC,NA,NAC,NAC,NA,NA,NA,93,Nearctic,Dfc,Boreal coniferous forest,NA,extratropical,NA,NA,NA,NA,NA
231,BOREAS University of California-1989,NAC,Manitoba,Canada,55.917,-98.964,NAC,NA,NAC,NAC,NAC,NAC,NA,NAC,NAC,NA,NA,NA,93,Nearctic,Dfc,Boreal coniferous forest,NA,extratropical,NA,NA,NA,NA,NA
232,BOREAS University of California-1998,NAC,Manitoba,Canada,56.636,-99.948,NAC,NA,NAC,NAC,NAC,NAC,NA,NAC,NAC,NA,NA,NA,94,Nearctic,Dfc,Boreal coniferous forest,NA,extratropical,NA,NA,NA,NA,NA
233,BOREAS University of California-2003,NAC,Manitoba,Canada,55.898,-98.216,NAC,NA,NAC,NAC,NAC,NAC,NA,NAC,NAC,NA,NA,NA,93,Nearctic,Dfc,Boreal coniferous forest,NA,extratropical,NA,NA,NA,NA,NA
234,BOREAS University of Wisconsin-D1850,NAC,Manitoba,Canada,55.879,-98.48,NAC,NA,NAC,NAC,NAC,NAC,NA,NAC,NAC,NA,NA,NA,93,Nearctic,Dfc,Boreal coniferous forest,NA,extratropical,NA,NA,NA,NA,NA
235,BOREAS University of Wisconsin-D1930,NAC,Manitoba,Canada,55.908,-98.519,NAC,NA,NAC,NAC,NAC,NAC,NA,NAC,NAC,NA,NA,NA,93,Nearctic,Dfc,Boreal coniferous forest,NA,extratropical,NA,NA,NA,NA,NA
236,BOREAS University of Wisconsin-D1964,NAC,Manitoba,Canada,55.92,-98.656,NAC,NA,NAC,NAC,NAC,NAC,NA,NAC,NAC,NA,NA,NA,93,Nearctic,Dfc,Boreal coniferous forest,NA,extratropical,NA,NA,NA,NA,NA
237,BOREAS University of Wisconsin-D1981,NAC,Manitoba,Canada,55.864,-98.483,NAC,NA,NAC,NAC,NAC,NAC,NA,NAC,NAC,NA,NA,NA,93,Nearctic,Dfc,Boreal coniferous forest,NA,extratropical,NA,NA,NA,NA,NA
238,BOREAS University of Wisconsin-D1989,NAC,Manitoba,Canada,55.906,-98.979,NAC,NA,NAC,NAC,NAC,NAC,NA,NAC,NAC,NA,NA,NA,93,Nearctic,Dfc,Boreal coniferous forest,NA,extratropical,NA,NA,NA,NA,NA
239,BOREAS University of Wisconsin-D1998,NAC,Manitoba,Canada,56.628,-99.942,NAC,NA,NAC,NAC,NAC,NAC,NA,NAC,NAC,NA,NA,NA,94,Nearctic,Dfc,Boreal coniferous forest,NA,extratropical,NA,NA,NA,NA,NA
240,Bornhoved Alder,NAC,Schleswig-Holstein,Germany,54.1,10.23,NI,NA,8.9,NAC,NAC,772,NA,loam,NAC,NA,NA,NA,95,Palearctic,Cfb,Temperate oceanic forest,NA,extratropical,Kutsch_2001,NA,1,Luyssaert_2007_cbob,Maria
241,Bornhoved Beech,NAC,Schleswig-Holstein,Germany,54.1,10.23,NI,NA,8.9,NAC,NAC,772,NA,loam,NAC,NA,NA,NA,95,Palearctic,Cfb,Temperate oceanic forest,NA,extratropical,Kutsch_2001,NA,1,Luyssaert_2007_cbob,Maria
242,Boulder junction C,NAC,Wisconsin,United States of America,46.16,-89.66,500,NA,NAC,NAC,NAC,NAC,NA,sandy loam,NAC,NA,NA,NA,96,Nearctic,Dfb,Temperate continental forest,NA,extratropical,Haynes_1995_bcai,NA,1,Luyssaert_2007_cbob,Maria
243,Boulder junction fertilized,NAC,Wisconsin,United States of America,46.16,-89.66,500,NA,NAC,NAC,NAC,NAC,NA,sandy loam,NAC,NA,NA,NA,96,Nearctic,Dfb,Temperate continental forest,NA,extratropical,Haynes_1995_bcai,NA,1,Luyssaert_2007_cbob,Maria
244,BR-319_M01_TN_1500,NAC,Amazonas,Brazil,-3.353,-59.856,NAC,NA,NAC,NAC,NAC,2236,NA,NAC,NAC,NA,NAC,NA,36,Neotropics,Am,Tropical rainforest,1322,tropical,NA,NA,NA,NA,NA
245,BR-319_M01_TN_3500,NAC,Amazonas,Brazil,-3.346,-59.83,NAC,NA,NAC,NAC,NAC,2236,NA,NAC,NAC,NA,NAC,NA,36,Neotropics,Am,Tropical rainforest,1323,tropical,NA,NA,NA,NA,NA
246,BR-319_M02_TN_0500,NAC,Amazonas,Brazil,-3.688,-60.332,NAC,NA,NAC,NAC,NAC,2281,NA,NAC,NAC,NA,NAC,NA,97,Neotropics,Am,Tropical rainforest,1324,tropical,NA,NA,NA,NA,NA
247,BR-319_M02_TN_1500,NAC,Amazonas,Brazil,-3.683,-60.324,NAC,NA,NAC,NAC,NAC,2280,NA,NAC,NAC,NA,NAC,NA,97,Neotropics,Am,Tropical rainforest,1325,tropical,NA,NA,NA,NA,NA
248,BR-319_M02_TN_4500,NAC,Amazonas,Brazil,-3.669,-60.301,NAC,NA,NAC,NAC,NAC,2280,NA,NAC,NAC,NA,NAC,NA,97,Neotropics,Am,Tropical rainforest,1326,tropical,NA,NA,NA,NA,NA
249,BR-319_M04_TN_0500,NAC,Amazonas,Brazil,-4.383,-60.943,NAC,NA,NAC,NAC,NAC,2373,NA,NAC,NAC,NA,NAC,NA,98,Neotropics,Af,Tropical rainforest,1327,tropical,NA,NA,NA,NA,NA
250,BR-319_M04_TN_3500,NAC,Amazonas,Brazil,-4.402,-60.923,NAC,NA,NAC,NAC,NAC,2381,NA,NAC,NAC,NA,NAC,NA,98,Neotropics,Af,Tropical rainforest,1328,tropical,NA,NA,NA,NA,NA
251,BR-319_M05_TN_(-)0500,NAC,Amazonas,Brazil,-4.616,-61.244,NAC,NA,NAC,NAC,NAC,2392,NA,NAC,NAC,NA,NAC,NA,99,Neotropics,Af,Tropical rainforest,1329,tropical,NA,NA,NA,NA,NA
252,BR-319_M05_TN_1500,NAC,Amazonas,Brazil,-4.603,-61.258,NAC,NA,NAC,NAC,NAC,2391,NA,NAC,NAC,NA,NAC,NA,99,Neotropics,Af,Tropical rainforest,1330,tropical,NA,NA,NA,NA,NA
253,BR-319_M06_TN_(-)0500,NAC,Amazonas,Brazil,-4.984,-61.571,NAC,NA,NAC,NAC,NAC,2418,NA,NAC,NAC,NA,NAC,NA,100,Neotropics,Af,Tropical rainforest,1331,tropical,NA,NA,NA,NA,NA
254,BR-319_M06_TN_0500,NAC,Amazonas,Brazil,-4.99,-61.563,NAC,NA,NAC,NAC,NAC,2428,NA,NAC,NAC,NA,NAC,NA,100,Neotropics,Af,Tropical rainforest,1332,tropical,NA,NA,NA,NA,NA
255,BR-319_M06_TN_1500,NAC,Amazonas,Brazil,-4.994,-61.556,NAC,NA,NAC,NAC,NAC,2428,NA,NAC,NAC,NA,NAC,NA,100,Neotropics,Af,Tropical rainforest,1333,tropical,NA,NA,NA,NA,NA
256,BR-319_M06_TN_2500,NAC,Amazonas,Brazil,-4.999,-61.549,NAC,NA,NAC,NAC,NAC,2428,NA,NAC,NAC,NA,NAC,NA,100,Neotropics,Af,Tropical rainforest,1334,tropical,NA,NA,NA,NA,NA
257,BR-319_M08_TS_0500,NAC,Amazonas,Brazil,-5.629,-62.194,NAC,NA,NAC,NAC,NAC,2409,NA,NAC,NAC,NA,NAC,NA,101,Neotropics,Af,Tropical rainforest,1335,tropical,NA,NA,NA,NA,NA
258,BR-319_M08_TS_1500,NAC,Amazonas,Brazil,-5.634,-62.186,NAC,NA,NAC,NAC,NAC,2409,NA,NAC,NAC,NA,NAC,NA,101,Neotropics,Af,Tropical rainforest,1336,tropical,NA,NA,NA,NA,NA
259,BR-319_M08_TS_2500,NAC,Amazonas,Brazil,-5.638,-62.178,NAC,NA,NAC,NAC,NAC,2416,NA,NAC,NAC,NA,NAC,NA,101,Neotropics,Af,Tropical rainforest,1337,tropical,NA,NA,NA,NA,NA
260,BR-319_M09_TS_2500,NAC,Amazonas,Brazil,-5.947,-62.51,NAC,NA,NAC,NAC,NAC,2383,NA,NAC,NAC,NA,NAC,NA,102,Neotropics,Af,Tropical rainforest,1338,tropical,NA,NA,NA,NA,NA
261,BR-319_M09_TS_3500,NAC,Amazonas,Brazil,-5.94,-62.516,NAC,NA,NAC,NAC,NAC,2383,NA,NAC,NAC,NA,NAC,NA,102,Neotropics,Af,Tropical rainforest,1339,tropical,NA,NA,NA,NA,NA
262,BR-319_M10_TS_1500,NAC,Amazonas,Brazil,-6.574,-62.931,NAC,NA,NAC,NAC,NAC,2335,NA,NAC,NAC,NA,NAC,NA,103,Neotropics,Am,Tropical rainforest,1340,tropical,NA,NA,NA,NA,NA
263,BR-319_M10_TS_2500,NAC,Amazonas,Brazil,-6.575,-62.922,NAC,NA,NAC,NAC,NAC,2335,NA,NAC,NAC,NA,NAC,NA,103,Neotropics,Am,Tropical rainforest,1341,tropical,NA,NA,NA,NA,NA
264,BR-319_M11_TN_1500,NAC,Amazonas,Brazil,-7.207,-63.117,NAC,NA,NAC,NAC,NAC,2272,NA,NAC,NAC,NA,NAC,NA,104,Neotropics,Am,Tropical rainforest,1342,tropical,NA,NA,NA,NA,NA
265,BR-319_M11_TN_2500,NAC,Amazonas,Brazil,-7.211,-63.109,NAC,NA,NAC,NAC,NAC,2267,NA,NAC,NAC,NA,NAC,NA,104,Neotropics,Am,Tropical rainforest,1343,tropical,NA,NA,NA,NA,NA
266,Bradford county 1,NAC,Florida,United States of America,29.53,-82.19,NI,NA,NAC,NAC,NAC,NAC,NA,clay loam,NAC,NA,NA,NA,52,Nearctic,Cfa,Subtropical humid forest,NA,extratropical,Ewel_1987_scei,NA,1,Luyssaert_2007_cbob,Maria
267,Bradford county 2,NAC,Florida,United States of America,29.53,-82.19,NI,NA,NAC,NAC,NAC,NAC,NA,clay loam,NAC,NA,NA,NA,52,Nearctic,Cfa,Subtropical humid forest,NA,extratropical,Ewel_1987_scei,NA,1,Luyssaert_2007_cbob,Maria
268,Brasschaat,NAC,Antwerp,Belgium,51.31,4.52,16,NA,10.58,NAC,NAC,847.2,NA,loam,NAC,soil class from Granier2007,NA,NA,105,Palearctic,Cfb,Temperate oceanic forest,NA,extratropical,Granier_2007_efsw,CD Carbodata,1,Luyssaert_2007_cbob,Maria
269,Brasschaat Oak,NAC,Antwerp,Belgium,51.31,4.52,16,NA,9.8,NAC,NAC,750,NA,loam,NAC,NA,NA,NA,105,Palearctic,Cfb,Temperate oceanic forest,NA,extratropical,Yuste_2005_cnpp,CD Carbodata,1,Luyssaert_2007_cbob,Maria
270,Brasschaat Pine,NAC,Antwerp,Belgium,51.31,4.52,16,NA,9.8,NAC,NAC,750,NA,loam,Umbric regosol,soil class from Granier2007,NA,NA,105,Palearctic,Cfb,Temperate oceanic forest,NA,extratropical,Yuste_2005_cnpp; Granier_2007_efws,CD Carbodata,1,Luyssaert_2007_cbob,Maria
271,Brasschaat young,NAC,Antwerp,Belgium,51.31,4.52,16,NA,9.8,NAC,NAC,750,NA,loam,NAC,NA,NA,NA,105,Palearctic,Cfb,Temperate oceanic forest,NA,extratropical,Janssens_1998_eaci,NA,1,Luyssaert_2007_cbob,Maria
272,Brazilian Lower Amazon land use and fire recovery age sequence,Santarem,Para,Brazil,-3.25,-52.25,NAC,NA,25.30833356,NAC,NAC,2225,NA,NAC,NAC,NA,NAC,NA,106,Neotropics,Am,Tropical rainforest,71,tropical,NA,NA,NA,NA,NA
273,Brazilian Lower Amazon mature forest,Santarem,Para,Brazil,-3.25,-52.25,NAC,NA,25.30833356,NAC,NAC,2225,NA,NAC,NAC,NA,NAC,NA,106,Neotropics,Am,Tropical rainforest,72,tropical,NA,NA,NA,NA,NA
274,Breitenbush Hot Springs 1,NAC,Oregon,United States of America,44.7824,-121.8975,1392,NA,NAC,NAC,NAC,NAC,NA,loam,NAC,NA,NA,NA,66,Nearctic,Csb,Temperate mountain system,NA,extratropical,NA,Sun et al 2004,1,Luyssaert_2007_cbob,Maria
275,Breitenbush Hot Springs 2,NAC,Oregon,United States of America,44.8006,-121.9901,853,NA,NAC,NAC,NAC,NAC,NA,loam,NAC,NA,NA,NA,66,Nearctic,Csb,Temperate mountain system,NA,extratropical,NA,Sun et al 2004,1,Luyssaert_2007_cbob,Maria
276,Breitenbush Hot Springs 3,NAC,Oregon,United States of America,44.763,-121.8859,1447,NA,NAC,NAC,NAC,NAC,NA,loam,NAC,NA,NA,NA,66,Nearctic,Csb,Temperate mountain system,NA,extratropical,NA,Sun et al 2004,1,Luyssaert_2007_cbob,Maria
277,Breitenbush Hot Springs 4,NAC,Oregon,United States of America,44.7894,-121.9945,835,NA,NAC,NAC,NAC,NAC,NA,loam,NAC,NA,NA,NA,66,Nearctic,Csb,Temperate mountain system,NA,extratropical,NA,Sun et al 2004,1,Luyssaert_2007_cbob,Maria
278,Breitenbush Hot Springs 5,NAC,Oregon,United States of America,44.7723,-121.9007,1310,NA,NAC,NAC,NAC,NAC,NA,loam,NAC,NA,NA,NA,66,Nearctic,Csb,Temperate mountain system,NA,extratropical,NA,Sun et al 2004,1,Luyssaert_2007_cbob,Maria
279,Breitenbush Hot Springs 6,NAC,Oregon,United States of America,44.7855,-121.8935,1383,NA,NAC,NAC,NAC,NAC,NA,loam,NAC,NA,NA,NA,66,Nearctic,Csb,Temperate mountain system,NA,extratropical,NA,Sun et al 2004,1,Luyssaert_2007_cbob,Maria
280,Brindabella Range Eucalyptus pauciflora forest,Canberra,Australian Capital Territory,Australia,-35.389722,148.803889,1220,NA,NAC,NAC,NAC,1200,NA,loamclay,NAC,NA,NA,NA,80,Australasia,Cfb,Temperate mountain system,NA,extratropical,NA,NA,NA,NA,NA
281,Broad Creek Memorial Reserve,NAC,Maryland,United States of America,39.68525,-76.252664,NAC,NA,NAC,NAC,NAC,NAC,NA,NAC,NAC,NA,NA,NA,107,Nearctic,Cfa,Temperate continental forest,NA,extratropical,NA,NA,NA,NA,Maria
282,Brookhaven,NAC,New York,United States of America,40.83,-72.9,1,NA,9.8,NAC,NAC,1240,NA,clay loam,NAC,NA,NA,NA,108,Nearctic,Cfa,Temperate continental forest,NA,extratropical,DeAngelis_1981_pofe,"DeAngelis et al 1981 IBP_96,",1,Luyssaert_2007_cbob,Maria
283,Brownsberg,NAC,Brokopondo,Suriname,4.946,-55.178,NAC,NA,NAC,NAC,NAC,2397,NA,NAC,NAC,NA,NAC,NA,109,Neotropics,Af,Tropical rainforest,1368,tropical,NA,NA,NA,NA,NA
284,"Buchanan S.F., Sweet Root Natural Area",NAC,Pennsylvania,United States of America,39.843137,-78.532878,NAC,NA,NAC,NAC,NAC,NAC,NA,NAC,NAC,NA,NA,NA,110,Nearctic,Cfa,Temperate mountain system,NA,extratropical,NA,NA,NA,NA,Maria
285,BUD-17_Budongo Plot 7,NAC,Masindi,Uganda,1.72,31.5,1085,NA,23,NAC,NAC,1326,NA,NAC,NAC,NA,NAC,NA,111,Afrotropics,Am,Tropical rainforest,152,tropical,NA,NA,NA,NA,NA
286,Buen Uso,NAC,Guanacaste,Costa Rica,10.8393,-85.6152,321,NA,25.7,NAC,NAC,1556,NA,NAC,Entisol,NA,NAC,NA,69,Neotropics,Aw,Tropical moist forest,1268,tropical,NA,NA,NA,NA,NA
287,Bukit Soeharto,NAC,East Kalimantan,Indonesia,-0.866,117.05,20,NA,25.3,NAC,NAC,2015,NA,loam,Ultisol,NA,NAC,NA,112,IndoMalay,Af,Tropical rainforest,154,tropical,NA,Asiaflux,NA,NA,NA
288,Caballos,NAC,San Jose,Costa Rica,9.8446,-84.5281,132,NA,27.1,NAC,NAC,2900,NA,NAC,Alfisol,NA,NAC,NA,113,Neotropics,Am,Tropical moist forest,1272,tropical,NA,NA,NA,NA,NA
289,Cajunuma,NAC,Loja,Ecuador,-4.12,-79.18,3060,NA,9.399999619,NAC,NAC,4500,NA,loam,Alfisol,NA,NAC,NA,114,Neotropics,Cfb,Tropical mountain system,445,tropical,Moser_2011_eeot,NA,NA,NA,NA
290,Caledon State Park,NAC,Virginia,United States of America,38.329529,-77.14784,NAC,NA,NAC,NAC,NAC,NAC,NA,NAC,NAC,NA,NA,NA,115,Nearctic,Cfa,Subtropical humid forest,NA,extratropical,NA,NA,NA,NA,Maria
291,Caliente,NAC,Puntarenas,Costa Rica,8.4053,-83.3372,74,NA,27,NAC,NAC,4300,NA,NAC,Ultisol,NA,NAC,NA,116,Neotropics,Af,Tropical rainforest,1302,tropical,NA,NA,NA,NA,NA
292,CAM-01_Campo Ma'an 1,NAC,South Region,Cameroon,2.36,9.93,100,NA,25.1,NAC,NAC,2588,NA,NAC,NAC,NA,NAC,NA,117,Afrotropics,Af,Tropical rainforest,195,tropical,NA,NA,NA,NA,NA
293,CAM-02_Campo Ma'an 2,NAC,"Litoral, Equatorial Guinea???",Cameroon,2.19,9.92,100,NA,25,NAC,NAC,2434,NA,NAC,NAC,NA,NAC,NA,117,Afrotropics,Af,Tropical rainforest,194,tropical,NA,NA,NA,NA,NA
294,CAM-03_Campo Ma'an 3,NAC,South Region,Cameroon,2.42,9.9,100,NA,25,NAC,NAC,2625,NA,NAC,NAC,NA,NAC,NA,117,Afrotropics,Af,Tropical rainforest,196,tropical,NA,NA,NA,NA,NA
295,Cambronero,NAC,Alajuela,Costa Rica,10.2989,-84.7665,1200,NA,20.1,NAC,NAC,5300,NA,NAC,Andisol,NA,NAC,NA,32,Neotropics,Aw,Tropical mountain system,1310,tropical,NA,NA,NA,NA,NA
296,Camp Borden,NAC,Ontario,Canada,44.316667,-79.93333,120,NA,6.4,NAC,NAC,858,NA,sandy loam,NAC,NA,NA,NA,118,Nearctic,Dfb,Temperate continental forest,NA,extratropical,Barr_2002_ctcb; Teklemariam_2009_eyoc,NA,1,Luyssaert_2007_cbob,Maria
297,Canada - Atlantic Maritime,NAC,New Brunswick,Canada,46,-66,NAC,NA,5,NAC,NAC,1200,NA,NAC,NAC,NA,NA,NA,119,Nearctic,Dfb,Temperate continental forest,NA,extratropical,NA,Keith_2009_rofb; Liu_2014_htpa,NA,Keith_2009_rofb; Liu_2014_htpa,Maria
298,Canada - Boreal Plains,NAC,Alberta,Canada,54,-115,NAC,NA,0,NAC,NAC,462,NA,NAC,NAC,NA,NA,NA,120,Nearctic,Dfc,Boreal coniferous forest,NA,extratropical,NA,Keith_2009_rofb; Liu_2014_htpa,NA,Keith_2009_rofb; Liu_2014_htpa,Maria
299,Canada - Eastern Boreal Shield,NAC,Ontario,Canada,51,-82,NAC,NA,5.5,NAC,NAC,1000,NA,NAC,NAC,NA,NA,NA,121,Nearctic,Dfc,Boreal tundra woodland,NA,extratropical,NA,Keith_2009_rofb; Liu_2014_htpa,NA,Keith_2009_rofb; Liu_2014_htpa,Maria
300,Canada - Hudson Plains,NAC,Manitoba,Canada,56,-94,NAC,NA,-3,NAC,NAC,600,NA,NAC,NAC,NA,NA,NA,122,Nearctic,Dfc,Boreal coniferous forest,NA,extratropical,NA,Keith_2009_rofb; Liu_2014_htpa,NA,Keith_2009_rofb; Liu_2014_htpa,Maria
301,Canada - Mixedwood Plains,NAC,Ontario,Canada,45,-77,NAC,NA,6.5,NAC,NAC,860,NA,NAC,NAC,NA,NA,NA,123,Nearctic,Dfb,Temperate continental forest,NA,extratropical,NA,Keith_2009_rofb; Liu_2014_htpa,NA,Keith_2009_rofb; Liu_2014_htpa,Maria
302,Canada - Montane Cordillera,NAC,British Columbia,Canada,52,-118,NAC,NA,4,NAC,NAC,1000,NA,NAC,NAC,NA,NA,NA,124,Nearctic,Dfc,Temperate mountain system,NA,extratropical,NA,Keith_2009_rofb; Liu_2014_htpa,NA,Keith_2009_rofb; Liu_2014_htpa,Maria
303,Canada - Pacific Maritime,NAC,British Columbia,Canada,51,-125,NAC,NA,6.7,NAC,NAC,2250,NA,NAC,NAC,NA,NA,NA,125,Nearctic,ET,Temperate mountain system,NA,extratropical,NA,Keith_2009_rofb; Liu_2014_htpa,NA,Keith_2009_rofb; Liu_2014_htpa,Maria
304,Canada - Taiga Plains,NAC,Alberta,Canada,58,-118,NAC,NA,-5.5,NAC,NAC,350,NA,NAC,NAC,NA,NA,NA,126,Nearctic,Dfc,Boreal tundra woodland,NA,extratropical,NA,Keith_2009_rofb; Liu_2014_htpa,NA,Keith_2009_rofb; Liu_2014_htpa,Maria
305,Canada - Western Boreal Shield,NAC,Manitoba,Canada,51,-99,NAC,NA,-4,NAC,NAC,400,NA,NAC,NAC,NA,NA,NA,127,Nearctic,Dfb,Temperate steppe,NA,extratropical,NA,Keith_2009_rofb; Liu_2014_htpa,NA,Keith_2009_rofb; Liu_2014_htpa,Maria
306,Canada - Western Taiga Shield,NAC,Alberta,Canada,59,-110,NAC,NA,-4,NAC,NAC,350,NA,NAC,NAC,NA,NA,NA,128,Nearctic,Dfc,Boreal coniferous forest,NA,extratropical,NA,Keith_2009_rofb; Liu_2014_htpa,NA,Keith_2009_rofb; Liu_2014_htpa,Maria
307,Canal Flats mesic 1,NAC,British Columbia,Canada,50.1,-115.25,1340,NA,1.4,NAC,NAC,634,NA,clay loam,NAC,NA,NA,NA,129,Nearctic,Dfc,Temperate mountain system,NA,extratropical,Comeau_1999_nbfc,NA,1,Luyssaert_2007_cbob,Maria
308,Canal Flats mesic 2,NAC,British Columbia,Canada,50.1,-115.25,1340,NA,1.4,NAC,NAC,634,NA,clay loam,NAC,NA,NA,NA,129,Nearctic,Dfc,Temperate mountain system,NA,extratropical,Comeau_1999_nbfc,NA,1,Luyssaert_2007_cbob,Maria
309,Canal Flats xeric 1,NAC,British Columbia,Canada,50.1,-115.25,1340,NA,1.4,NAC,NAC,634,NA,clay loam,NAC,NA,NA,NA,129,Nearctic,Dfc,Temperate mountain system,NA,extratropical,Comeau_1999_nbfc,NA,1,Luyssaert_2007_cbob,Maria
310,Canal Flats xeric 2,NAC,British Columbia,Canada,50.1,-115.25,1340,NA,1.4,NAC,NAC,634,NA,clay loam,NAC,NA,NA,NA,129,Nearctic,Dfc,Temperate mountain system,NA,extratropical,Comeau_1999_nbfc,NA,1,Luyssaert_2007_cbob,Maria
311,Cano,NAC,Heredia,Costa Rica,10.4214,-84.1618,224,NA,24.3,NAC,NAC,3900,NA,NAC,Inceptisol,NA,NAC,NA,1,Neotropics,Am,Tropical rainforest,1285,tropical,NA,NA,NA,NA,NA
312,Cano Rosalba 1,NAC,Zulia,Venezuela,9.25,-72,60,NA,27.9,NAC,NAC,1324,Dry season length 6 mths,NAC,younger oxisol,NA,terra firma,NA,130,Neotropics,Aw,Tropical rainforest,474,tropical,NA,Veillon (1985),NA,NA,NA
313,Cano Rosalba 2,NAC,Zulia,Venezuela,9.25,-72,35,NA,28.03,NAC,NAC,1324,Dry season length 6 mths,NAC,Pleistocene alluvial,NA,terra firma,NA,130,Neotropics,Aw,Tropical rainforest,475,tropical,NA,Veillon (1985),NA,NA,NA
314,Caopo,Ruo'ergai,Sichuan/Gansu?,China,33.85,103.3,NAC,NA,2.4,NAC,NAC,757,NA,NAC,NAC,NA,NA,NA,54,Palearctic,Dwb,Temperate mountain system,NA,extratropical,NA,Liu_2014_htpa,NA,Liu_2014_htpa,Maria
315,CAP-09_Cape Three Points 9,NAC,Western Region,Ghana,4.85,-2.1,126,NA,26,NAC,NAC,1734,NA,NAC,NAC,NA,NAC,NA,131,Afrotropics,Aw,Tropical rainforest,219,tropical,NA,NA,NA,NA,NA
316,CAP-10_Cape Three Points 10,NAC,Western Region,Ghana,4.8,-2.05,68,NA,25.6,NAC,NAC,1678,NA,NAC,NAC,NA,NAC,NA,131,Afrotropics,Aw,Tropical rainforest,218,tropical,NA,NA,NA,NA,NA
317,"Capitao Paco,Para 1",NAC,Para,Brazil,-1.73,-47.2,NAC,NA,NAC,NAC,NAC,2471,rainfall seasonality index SR (%) = 0.49,NAC,Ferralsol,NA,NAC,NA,132,Neotropics,Am,Tropical rainforest,1176,tropical,NA,NA,NA,NA,NA
318,"Capitao Paco,Para 2",NAC,Para,Brazil,-1.73,-47.2,NAC,NA,NAC,NAC,NAC,2471,rainfall seasonality index SR (%) = 0.27,NAC,Ferralsol,NA,NAC,NA,132,Neotropics,Am,Tropical rainforest,1177,tropical,NA,NA,NA,NA,NA
319,Caqueta,NAC,Amazonas,Colombia,-0.53,-72.1,200,NA,26.88,NAC,NAC,3059,Dry season length 0.38 mths,NAC,ultisol,NA,terra firma,NA,133,Neotropics,Af,Tropical rainforest,471,tropical,NA,NA,NA,NA,NA
320,Caqueta (Poorter),NAC,Amazonas,Colombia,-0.417,-70.5,NAC,NA,NAC,NAC,NAC,3059,NA,NAC,NAC,NA,NAC,NA,134,Neotropics,Af,Tropical rainforest,1353,tropical,NA,NA,NA,NA,NA
321,Carajas,NAC,Para,Brazil,-6,-50.5,170,NA,25.64,NAC,NAC,1993,Dry season length 4.9 mths,NAC,younger oxisol,NA,terra firma,NA,135,Neotropics,Am,Tropical rainforest,472,tropical,NA,NA,NA,NA,NA
322,Cardoso Island,NAC,Sao Paulo,Brazil,-25.1,-48,NAC,NA,NAC,NAC,NAC,2225,rainfall seasonality index SR (%) = 0.27,NAC,NAC,NA,NA,NA,136,Neotropics,Cfa,Tropical rainforest,NA,extratropical,NA,NA,NA,NA,Maria
323,Cardoso Island restinga,NAC,Sao Paulo,Brazil,-25.1,-48,NAC,NA,NAC,NAC,NAC,2225,rainfall seasonality index SR (%) = 0.42,NAC,Arenosol,NA,NA,NA,136,Neotropics,Cfa,Tropical rainforest,NA,extratropical,NA,NA,NA,NA,Maria
324,Cascada,NAC,Heredia,Costa Rica,10.3948,-83.9868,92,NA,25.1,NAC,NAC,3900,NA,NAC,Inceptisol,NA,NAC,NA,1,Neotropics,Af,Tropical rainforest,1290,tropical,NA,NA,NA,NA,NA
325,Cascade Head (1),NAC,Oregon,United States of America,45.05,-123.97,240,NA,10.1,NAC,NAC,2510,NA,loam,NAC,NA,NA,NA,137,Nearctic,Csb,Temperate mountain system,NA,extratropical,Runyon_1994_elon,Williams et al. 1997,1,Luyssaert_2007_cbob,Maria
326,Cascade Head (1A),NAC,Oregon,United States of America,45.05,-123.97,200,NA,10.1,NAC,NAC,2510,NA,loam,NAC,NA,NA,NA,137,Nearctic,Csb,Temperate mountain system,NA,extratropical,Runyon_1994_elon,Williams et al. 1997,1,Luyssaert_2007_cbob,Maria
327,Cascade Head 1,NAC,Oregon,United States of America,45.1024,-123.8816,205,NA,NAC,NAC,NAC,NAC,NA,loam,NAC,NA,NA,NA,137,Nearctic,Csb,Temperate mountain system,NA,extratropical,Law_2004_dace,NA,1,Luyssaert_2007_cbob,Maria
328,Cascade Head 10,NAC,Oregon,United States of America,45.0679,-123.8882,255,NA,NAC,NAC,NAC,NAC,NA,loam,NAC,NA,NA,NA,137,Nearctic,Csb,Temperate mountain system,NA,extratropical,Law_2004_dace,NA,1,Luyssaert_2007_cbob,Maria
329,Cascade Head 11,NAC,Oregon,United States of America,45.0819,-123.9038,236,NA,NAC,NAC,NAC,NAC,NA,loam,NAC,NA,NA,NA,137,Nearctic,Csb,Temperate mountain system,NA,extratropical,Law_2004_dace,NA,1,Luyssaert_2007_cbob,Maria
330,Cascade Head 12,NAC,Oregon,United States of America,45.0445,-123.9007,261,NA,NAC,NAC,NAC,NAC,NA,loam,NAC,NA,NA,NA,137,Nearctic,Csb,Temperate mountain system,NA,extratropical,Law_2004_dace,NA,1,Luyssaert_2007_cbob,Maria
331,Cascade Head 2,NAC,Oregon,United States of America,45.0974,-123.8972,308,NA,NAC,NAC,NAC,NAC,NA,loam,NAC,NA,NA,NA,137,Nearctic,Csb,Temperate mountain system,NA,extratropical,Law_2004_dace,NA,1,Luyssaert_2007_cbob,Maria
332,Cascade Head 3,NAC,Oregon,United States of America,45.1122,-123.8841,122,NA,NAC,NAC,NAC,NAC,NA,loam,NAC,NA,NA,NA,137,Nearctic,Csb,Temperate mountain system,NA,extratropical,Law_2004_dace,NA,1,Luyssaert_2007_cbob,Maria
333,Cascade Head 4,NAC,Oregon,United States of America,45.1122,-123.8841,NI,NA,NAC,NAC,NAC,NAC,NA,loam,NAC,NA,NA,NA,137,Nearctic,Csb,Temperate mountain system,NA,extratropical,Law_2004_dace,NA,1,Luyssaert_2007_cbob,Maria
334,Cascade Head 5,NAC,Oregon,United States of America,45.1122,-123.8841,NI,NA,NAC,NAC,NAC,NAC,NA,loam,NAC,NA,NA,NA,137,Nearctic,Csb,Temperate mountain system,NA,extratropical,Law_2004_dace,NA,1,Luyssaert_2007_cbob,Maria
335,Cascade Head 6,NAC,Oregon,United States of America,45.0894,-123.8816,321,NA,NAC,NAC,NAC,NAC,NA,loam,NAC,NA,NA,NA,137,Nearctic,Csb,Temperate mountain system,NA,extratropical,Law_2004_dace,NA,1,Luyssaert_2007_cbob,Maria
336,Cascade Head 7,NAC,Oregon,United States of America,45.0894,-123.8807,298,NA,NAC,NAC,NAC,NAC,NA,loam,NAC,NA,NA,NA,137,Nearctic,Csb,Temperate mountain system,NA,extratropical,Law_2004_dace,NA,1,Luyssaert_2007_cbob,Maria
337,Cascade Head 8,NAC,Oregon,United States of America,45.0894,-123.8807,NI,NA,NAC,NAC,NAC,NAC,NA,loam,NAC,NA,NA,NA,137,Nearctic,Csb,Temperate mountain system,NA,extratropical,Law_2004_dace,NA,1,Luyssaert_2007_cbob,Maria
338,Cascade Head 9,NAC,Oregon,United States of America,45.0699,-123.8949,207,NA,NAC,NAC,NAC,NAC,NA,loam,NAC,NA,NA,NA,137,Nearctic,Csb,Temperate mountain system,NA,extratropical,Law_2004_dace,NA,1,Luyssaert_2007_cbob,Maria
339,Castelporziano,NAC,Roma,Italy,41.705806,12.377306,68.253,NA,15.6,NAC,NAC,781,NA,clay loam/sandy?,NAC,NA,NA,NA,138,Palearctic,Csa,Subtropical dry forest,NA,extratropical,Baldocchi_2010_otda,CD Carbodata; Reichstein et al 2002; Fluxnet; gaia.agraria.unitus.it,1,Luyssaert_2007_cbob,Maria
340,Casuarina equisetifolia plantation 5-year stand,NAC,Uttar Pradesh,India,24.1,82.7,NAC,NA,24.64,14,38,1029,NA,sandy loam,NAC,pH acidic to neutral.,NA,NA,139,IndoMalay,Cwa,Tropical dry forest,NA,extratropical,NA,NA,NA,NA,NA
341,Casuarina equisetifolia plantation 8-year stand,NAC,Uttar Pradesh,India,24.1,82.7,NAC,NA,24.64,14,38,1029,NA,sandy loam,NAC,pH acidic to neutral.,NA,NA,139,IndoMalay,Cwa,Tropical dry forest,NA,extratropical,NA,NA,NA,NA,NA
342,Caxiuana,NAC,Para,Brazil,-1.72,-51.45,NI,NA,NAC,NAC,NAC,2500,NA,clay,NAC,NA,NAC,NA,140,Neotropics,Af,Tropical rainforest,114,tropical,Carswell_2002_sica,NA,NA,NA,NA
343,Caxiuana 1 CAX-01,NAC,Para,Brazil,-1.7,-51.53,15,NA,26.7,NAC,NAC,2220,Dry season length 3.97 mths,NAC,older oxisol,NA,terra firma,NA,140,Neotropics,Am,Tropical rainforest,115,tropical,NA,NA,NA,NA,NA
344,Caxiuana 2 CAX-02,NAC,Para,Brazil,-1.7,-51.53,15,NA,26.7,NAC,NAC,2220,Dry season length 3.97 mths,NAC,older oxisol,NA,terra firma,NA,140,Neotropics,Am,Tropical rainforest,116,tropical,NA,NA,NA,NA,NA
345,Caxiuana Drought Control CAX-04,NAC,Para,Brazil,-1.72,-51.46,47,NA,25.8,NAC,NAC,2311,NA,loamy sand,Vetic Acrisol,NA,NAC,NA,140,Neotropics,Af,Tropical rainforest,463,tropical,da Costa_2014_eran,NA,NA,NA,NA
346,Caxiuana Terra Preta CAX-08,NAC,Para,Brazil,-1.72,-51.5,NAC,NA,26.89999962,NAC,NAC,2314,rainfall seasonality index SR (%) = 0.13,sandy clay loam,Inceptisol,Hortic Archaeo-Anthrosol,NAC,NA,140,Neotropics,Am,Tropical rainforest,446,tropical,Aragao_2009_aabn; Chave_2010_rasp,NA,NA,NA,NA
347,Caxiuana Tower CAX-06,NAC,Para,Brazil,-1.74,-51.46,47,NA,25.8,NAC,NAC,2311,rainfall seasonality index SR (%) = 0.42,clay,Geric Acric Ferralsol,NA,NAC,NA,140,Neotropics,Af,Tropical rainforest,464,tropical,Doughty_2014_tpaa; Chave_2010_rasp,NA,NA,NA,NA
348,Cedar Bridge fire tower Pine/Scrub Oak stand,NAC,New Jersey,United States of America,39.8379,-74.3791,58,NA,NAC,0.3,23.8,1123,NA,NAC,NAC,NA,NA,NA,141,Nearctic,Cfa,Temperate continental forest,NA,extratropical,Clark_2010_iiif,NA,NA,Baldocchi_2008_bott,Maria
349,Cedar River Watershed Douglas Fir Chronosequence,Seattle,Washington,United States of America,47,-122,NAC,NA,8.6,-2,30,1608,NA,sandy loam,Spodosol,"Typic haplorthod; gravely sandy loam. The parent glacial drift is derived mainly from andesite and basaltic rocks but also includes quartzite, shale, sandstone, and some granite material.",NA,NA,142,Nearctic,Csb,Temperate mountain system,NA,extratropical,NA,NA,NA,NA,NA
350,CELOS 67/9A,NAC,Para,Suriname,5.22,-55.67,66,NA,26.81,NAC,NAC,2201,Dry season length 2.9 mths,NAC,ultisol,NA,terra firma,NA,17,Neotropics,Af,Tropical moist forest,473,tropical,NA,de Graaf et al. (1999),NA,NA,NA
351,Central Finland,NAC,Northern Ostrobothnia,Finland,64.72,26.02,NAC,NA,2,NAC,NAC,500,NA,NAC,NAC,NA,NA,NA,143,Palearctic,Dfc,Boreal coniferous forest,NA,extratropical,NA,Keith_2009_rofb; Liu_2014_htpa,NA,Keith_2009_rofb; Liu_2014_htpa,Maria
352,Central Highlands (cool temperate moist),Central Highlands,Victoria,Australia,-37.62,145.79,NAC,NA,9.4,NAC,NAC,1668,NA,NAC,NAC,NA,NA,NA,144,Australasia,Cfb,Temperate mountain system,NA,extratropical,NA,Keith et al. 2009 (in Liu 2014): #112; D. Lindenmayer pers. comm.,NA,Keith_2009_rofb; Liu_2014_htpa,Maria
353,central Highlands of Victoria,NAC,Victoria,Australia,-37.62,145.79,NAC,NA,9.4,NAC,NAC,1670,NA,NAC,NAC,NA,NA,cannot find in Keith 2009 SI,144,Australasia,Cfb,Temperate mountain system,NA,extratropical,NA,Keith_2009_rofb; Liu_2014_htpa,NA,Keith_2009_rofb; Liu_2014_htpa,Maria
354,Central Himalaya Eucalypt Plantations age series,NAC,Uttaranchal,India,29.15,79.36,280,NA,23.3333,14.4,31.3,1415,NA,loam,NAC,"Tertiary sediments consiting of lower sandstones of old tarai deposits washed from the Himalayan mountains. The soil is deep and fertile, mist alluvial loam, conspicuously free from boulders and gravels.",NA,NA,72,IndoMalay,Cwa,Tropical moist forest,NA,extratropical,NA,NA,NA,NA,NA
355,Central Mississippi High quality Lowland,NAC,Mississippi,United States of America,33,-89,125,NA,17.8,NAC,NAC,1425,NA,sand,Podzol,Red yellow podzols,NA,NA,145,Nearctic,Cfa,Subtropical humid forest,NA,extratropical,NA,NA,NA,NA,NA
356,Central Mississippi Low quality Upland,NAC,Mississippi,United States of America,33,-89,125,NA,17.8,NAC,NAC,1425,NA,sand,Podzol,Red yellow podzols,NA,NA,145,Nearctic,Cfa,Subtropical humid forest,NA,extratropical,NA,NA,NA,NA,NA
357,Central Rondonia Chronosequence Site a,Cacaulandia,Rondonia,Brazil,-10.316667,-62.766667,350,NA,27.6,NAC,NAC,2290,NA,NAC,Ultisol; Entisol,Allic Paleudult and Lithic Oxic Troporthent soils with a soil depth of ~0.6 m.,NAC,NA,146,Neotropics,Aw,Tropical rainforest,41,tropical,NA,NA,NA,NA,NA
358,Central Rondonia Chronosequence Site b,Cacaulandia,Rondonia,Brazil,-10.316667,-62.766667,350,NA,27.6,NAC,NAC,2290,NA,NAC,Ultisol; Entisol,Allic Paleudult and Lithic Oxic Troporthent soils with a soil depth of ~0.6 m.,NAC,NA,146,Neotropics,Aw,Tropical rainforest,42,tropical,NA,NA,NA,NA,NA
359,Central Rondonia Chronosequence Site c,Cacaulandia,Rondonia,Brazil,-10.316667,-62.766667,350,NA,27.6,NAC,NAC,2290,NA,NAC,Ultisol; Entisol,Allic Paleudult and Lithic Oxic Troporthent soils with a soil depth of ~0.6 m.,NAC,NA,146,Neotropics,Aw,Tropical rainforest,43,tropical,NA,NA,NA,NA,NA
360,Central Rondonia Chronosequence Site d,Cacaulandia,Rondonia,Brazil,-10.316667,-62.766667,350,NA,27.6,NAC,NAC,2290,NA,NAC,Ultisol; Entisol,Allic Paleudult and Lithic Oxic Troporthent soils with a soil depth of ~0.6 m.,NAC,NA,146,Neotropics,Aw,Tropical rainforest,44,tropical,NA,NA,NA,NA,NA
361,Central Rondonia Chronosequence Site e,Cacaulandia,Rondonia,Brazil,-10.316667,-62.766667,350,NA,27.6,NAC,NAC,2290,NA,NAC,Ultisol; Entisol,Allic Paleudult and Lithic Oxic Troporthent soils with a soil depth of ~0.6 m.,NAC,NA,146,Neotropics,Aw,Tropical rainforest,45,tropical,NA,NA,NA,NA,NA
362,Central Rondonia Chronosequence Site f,Cacaulandia,Rondonia,Brazil,-10.316667,-62.766667,350,NA,27.6,NAC,NAC,2290,NA,NAC,Ultisol; Entisol,Allic Paleudult and Lithic Oxic Troporthent soils with a soil depth of ~0.6 m.,NAC,NA,146,Neotropics,Aw,Tropical rainforest,46,tropical,NA,NA,NA,NA,NA
363,Central Rondonia Chronosequence Site g,Cacaulandia,Rondonia,Brazil,-10.316667,-62.766667,350,NA,27.6,NAC,NAC,2290,NA,NAC,Ultisol; Entisol,Allic Paleudult and Lithic Oxic Troporthent soils with a soil depth of ~0.6 m.,NAC,NA,146,Neotropics,Aw,Tropical rainforest,47,tropical,NA,NA,NA,NA,NA
364,Central Rondonia Chronosequence Site h,Cacaulandia,Rondonia,Brazil,-10.316667,-62.766667,350,NA,27.6,NAC,NAC,2290,NA,NAC,Ultisol; Entisol,Allic Paleudult and Lithic Oxic Troporthent soils with a soil depth of ~0.6 m.,NAC,NA,146,Neotropics,Aw,Tropical rainforest,48,tropical,NA,NA,NA,NA,NA
365,Central Rondonia Chronosequence Site i,Cacaulandia,Rondonia,Brazil,-10.316667,-62.766667,350,NA,27.6,NAC,NAC,2290,NA,NAC,Ultisol; Entisol,Allic Paleudult and Lithic Oxic Troporthent soils with a soil depth of ~0.6 m.,NAC,NA,146,Neotropics,Aw,Tropical rainforest,49,tropical,NA,NA,NA,NA,NA
366,Central South Island NZ,NAC,Canterbury,New Zealand,-43.25,172,NAC,NA,8,NAC,NAC,1447,NA,NAC,NAC,NA,NA,NA,147,Australasia,Cfb,Temperate oceanic forest,NA,extratropical,NA,Keith_2009_rofb; Liu_2014_htpa,NA,Keith_2009_rofb; Liu_2014_htpa,Maria
367,central Victoria (warm temperate moist),NAC,Victoria,Australia,-37.43,145.18,NAC,NA,10.4,NAC,NAC,1244,NA,NAC,NAC,NA,NA,NA,148,Australasia,Cfb,Temperate mountain system,NA,extratropical,NA,Keith_2009_rofb; Liu_2014_htpa,NA,Keith_2009_rofb; Liu_2014_htpa,Maria
368,Cerro Pelao 1,NAC,Santa Cruz,Bolivia,-14.54,-61.48,350,NA,24,NAC,NAC,1384,Dry season length 6.49 mths,NAC,inceptisol,Rock outcrop,NAC,NA,149,Neotropics,Aw,Tropical rainforest,22,tropical,NA,NA,NA,NA,NA
369,Cerro Pelao 2,NAC,Santa Cruz,Bolivia,-14.53,-61.48,350,NA,23.9,NAC,NAC,1388,Dry season length 6.49 mths,NAC,inceptisol,Rock outcrop,NAC,NA,149,Neotropics,Aw,Tropical rainforest,23,tropical,NA,NA,NA,NA,NA
370,Chajul,NAC,Quiche,Mexico,16.017,-90.917,NAC,NA,NAC,NAC,NAC,2849,NA,NAC,NAC,NA,NAC,NA,150,Neotropics,Aw,Tropical rainforest,1360,tropical,NA,NA,NA,NA,NA
371,Chakia,NAC,Uttar Pradesh,India,25.33,83,350,NA,25.6,NAC,NAC,844,Very seasonal--80%of rainfall in 3 mo,clay loam,NAC,Sandy to Clayey Loam,NA,NA,151,IndoMalay,Cwa,Tropical dry forest,NA,extratropical,DeAngelis_1981_pofe,DeAngelis et al 1981 IBP_17; Bhandu 1973,1,Luyssaert_2007_cbob,Maria
372,Chakia Forest 1,Varanasi,Uttar Pradesh,India,25,83.033333,300,NA,NAC,NAC,NAC,NAC,NA,clay loam,NAC,NA,NA,NA,152,IndoMalay,Cwa,Tropical dry forest,NA,extratropical,DeAngelis_1981_pofe,"DeAngelis et al 1981 IBP_17,",1,Luyssaert_2007_cbob,Maria
373,Chakia Forest 2,Varanasi,Uttar Pradesh,India,25,83,350,NA,30.1,NAC,NAC,741.6,NA,clay loam,NAC,NA,NA,NA,152,IndoMalay,Cwa,Tropical dry forest,NA,extratropical,DeAngelis_1981_pofe,"DeAngelis et al 1981 IBP_17,",1,Luyssaert_2007_cbob,Maria
374,Chamela - ReSerBos,NAC,Jalisco,Mexico,19.483,-105.033,NAC,NA,NAC,NAC,NAC,756,NA,NAC,NAC,NA,NAC,NA,153,Neotropics,As,Tropical dry forest,1361,tropical,NA,NA,NA,NA,NA
375,Chamela 1 Lower,NAC,Jalisco,Mexico,19.5,-105.02,70,NA,24.9,NAC,NAC,707,NA,clay,Entisols,NA,NAC,NA,153,Neotropics,As,Tropical dry forest,381,tropical,Clark_2001_nppi; Martinez-Yrizar_1996_nppo; Martinez-Yrizar_1992_agpo,NA,NA,NA,NA
376,Chamela 2 Middle,NAC,Jalisco,Mexico,19.5,-105.02,130,NA,24.95,NAC,NAC,743.5,NA,clay,Entisols,NA,NAC,NA,153,Neotropics,As,Tropical dry forest,382,tropical,Clark_2001_nppi; Martinez-Yrizar_1996_nppo; Martinez-Yrizar_1992_agpo,NA,NA,NA,NA
377,Chamela 3 Upper,NAC,Jalisco,Mexico,19.5,-105.02,150,NA,24.9,NAC,NAC,707,NA,clay,Entisols,NA,NAC,NA,153,Neotropics,As,Tropical dry forest,383,tropical,Clark_2001_nppi; Martinez-Yrizar_1996_nppo; Martinez-Yrizar_1992_agpo,NA,NA,NA,NA
378,Changbai,NAC,Jilin,China,42.4,128.1,NAC,NA,3.6,NAC,NAC,695,NA,NAC,NAC,NA,NA,NA,154,Palearctic,Dwb,Temperate continental forest,NA,extratropical,NA,Liu_2014_htpa,NA,Liu_2014_htpa,Maria
379,Changbai (cool temperate montane Asia),NAC,Chagang-do,China,41,127,NAC,NA,3.9,NAC,NAC,782,NA,NAC,NAC,NA,NA,NA,155,Palearctic,Dwb,Temperate continental forest,NA,extratropical,NA,Keith_2009_rofb; Liu_2014_htpa,NA,Keith_2009_rofb; Liu_2014_htpa,Maria
380,Changbai Mountains,"Erdaobaihe Town, Antu County",Jilin,China,42.4,128.45,738,NA,3.6,NAC,NAC,713,NA,loam,NAC,NA,NA,NA,154,Palearctic,Dwb,Temperate continental forest,NA,extratropical,Zhang_2006_svic; Guan_2006_cfoa,ChinaFlux,1,Luyssaert_2007_cbob,Maria
381,Changbaishan 3,NAC,Jilin,China,42.4,128.1,NAC,NA,1.8,NAC,NAC,750,NA,NAC,NAC,NA,NA,NA,154,Palearctic,Dwb,Temperate continental forest,NA,extratropical,NA,Liu_2014_htpa,NA,Liu_2014_htpa,Maria
382,Changbaishan Larix 1,Antu,Jilin,China,42.2,127.3,NAC,NA,1.9,NAC,NAC,875,NA,NAC,NAC,NA,NA,NA,156,Palearctic,Dwb,Temperate continental forest,NA,extratropical,NA,Liu_2014_htpa,NA,Liu_2014_htpa,Maria
383,"Changbaishan Picea, Abies",Antu,Jilin,China,42.4,128.1,NAC,NA,0.6,NAC,NAC,907,NA,NAC,NAC,NA,NA,NA,154,Palearctic,Dwb,Temperate continental forest,NA,extratropical,NA,Liu_2014_htpa,NA,Liu_2014_htpa,Maria
384,"Changbaishan Populus, Betula",Antu,Jilin,China,41.8,126.9,NAC,NA,3.3,NAC,NAC,863,NA,NAC,NAC,NA,NA,NA,157,Palearctic,Dwb,Temperate continental forest,NA,extratropical,NA,Liu_2014_htpa,NA,Liu_2014_htpa,Maria
385,"Changbaishan, Larix 2",Antu,Jilin,China,42.4,128.1,NAC,NA,2.5,NAC,NAC,854,NA,NAC,NAC,NA,NA,NA,154,Palearctic,Dwb,Temperate continental forest,NA,extratropical,NA,Liu_2014_htpa,NA,Liu_2014_htpa,Maria
386,"Changbaishan, Larix 3",Antu,Jilin,China,42.75,128.27,NAC,NA,2.1,NAC,NAC,832,NA,NAC,NAC,NA,NA,NA,158,Palearctic,Dwb,Temperate continental forest,NA,extratropical,NA,Liu_2014_htpa,NA,Liu_2014_htpa,Maria
387,Changdu,NAC,Tibet,China,31.1,97.1,NAC,NA,1.9,NAC,NAC,584,NA,NAC,NAC,NA,NA,NA,159,Palearctic,ET,Subtropical mountain system,NA,extratropical,NA,Liu_2014_htpa,NA,Liu_2014_htpa,Maria
388,Changjiaba,Foping,Shaanxi,China,33.5,107.9,NAC,NA,4.1,NAC,NAC,881,NA,NAC,NAC,NA,NA,NA,160,Palearctic,Dwb,Subtropical mountain system,NA,extratropical,NA,Liu_2014_htpa,NA,Liu_2014_htpa,Maria
389,Charabaru,NAC,Upper Takutu-Upper Essequibo,Guyana,4.937,-58.355,NAC,NA,NAC,NAC,NAC,2862,NA,NAC,NAC,NA,NAC,NA,161,Neotropics,Af,Tropical rainforest,1358,tropical,NA,NA,NA,NA,NA
390,Cheko,NAC,Kaoh Kong,Cambodia,10.93,103.4,NAC,NA,27.8,NAC,NAC,3726,NA,NAC,NAC,NA,NAC,NA,162,IndoMalay,Am,Tropical rainforest,324,tropical,NA,NA,NA,NA,NA
391,Cheng and Li (1989),NAC,Inner Mongol,China,52.2,120.8,NAC,NA,-6,NAC,NAC,400,NA,NAC,NAC,NA,NA,NA,163,Palearctic,Dwc,Boreal coniferous forest,NA,extratropical,NA,Liu_2014_htpa,NA,Liu_2014_htpa,Maria
392,Chersky,Chersky,Eastern Siberia,Russia,69,160,100,NA,NAC,NAC,NAC,NAC,NA,NAC,Gelisol,Turbic cryosol/gelisol,lower delta of Kolyma River,NA,164,Palearctic,Dfc,Polar,NA,extratropical,NA,NA,NA,Yu_2014_hcdu,Maria
393,Chibougamau EOBS,NAC,Quebec,Canada,49.692,-74.342,387,NA,-0.5,NAC,NAC,1007.5,NA,loam,NAC,NA,NA,NA,165,Nearctic,Dfc,Boreal coniferous forest,NA,extratropical,Bergeron_2007_cocd,NA,1,Luyssaert_2007_cbob,Maria
394,Chibougamau HBS00,NAC,Quebec,Canada,49.267,-74.037,400,NA,0,NAC,NAC,961.3,NA,NAC,ferro-humic to humic podzol,NA,NA,NA,166,Nearctic,Dfc,Temperate continental forest,NA,extratropical,Giasson_2006_ecff,NA,NA,Baldocchi_2008_bott,Maria
395,Chile,NAC,Los Lagos,Chile,-40.5,-73.5,NAC,NA,10.6,NAC,NAC,1600,NA,NAC,NAC,NA,NA,NA,167,Neotropics,Cfb,Temperate oceanic forest,NA,extratropical,NA,Keith_2009_rofb; Liu_2014_htpa,NA,Keith_2009_rofb; Liu_2014_htpa,Maria
396,Chippewa National Forest chronosequence,Deep River,Minnesota,United States of America,47.341,-94.207,NAC,NA,3,NAC,NAC,700,NA,sand,NAC,NA,NA,NA,168,Nearctic,Dfb,Temperate continental forest,NA,extratropical,NA,NA,NA,NA,NA
397,"Chiribiquete, Tepuy",NAC,Caqueta,Colombia,0.07,-72.4,NAC,NA,NAC,NAC,NAC,1996,rainfall seasonality index SR (%) = 0.16,NAC,Leptosol,NA,NAC,NA,169,Neotropics,Af,Tropical rainforest,1180,tropical,NA,NA,NA,NA,NA
398,"Chiribiquete,TF Alta",NAC,Caqueta,Colombia,0.07,-72.4,NAC,NA,NAC,NAC,NAC,1996,rainfall seasonality index SR (%) = 0.04,NAC,Cambisol,NA,NAC,NA,169,Neotropics,Af,Tropical rainforest,1181,tropical,NA,NA,NA,NA,NA
399,Chonco,NAC,San Jose,Costa Rica,9.8401,-84.5403,53,NA,27.6,NAC,NAC,2900,NA,NAC,Alfisol,NA,NAC,NA,113,Neotropics,Aw,Tropical moist forest,1279,tropical,NA,NA,NA,NA,NA
400,Chore 1,NAC,Santa Cruz,Bolivia,-14.35,-61.16,170,NA,25.1,NAC,NAC,1413,Dry season length 6.23 mths,NAC,younger oxisol (xanthic eutrustox),NA,NA,NA,170,Neotropics,Aw,Tropical rainforest,26,tropical,NA,NA,NA,NA,NA
401,Chuosixian,Jinchuan,Sichuan,China,31.7,101.6,NAC,NA,3.1,NAC,NAC,670,NA,NAC,NAC,NA,NA,NA,171,Palearctic,Dwb,Subtropical mountain system,NA,extratropical,NA,Liu_2014_htpa,NA,Liu_2014_htpa,Maria
402,Chupadero,NAC,Puntarenas,Costa Rica,9.7761,-84.618,45,NA,27.6,NAC,NAC,3000,NA,NAC,Ultisol,NA,NAC,NA,113,Neotropics,Aw,Tropical moist forest,1281,tropical,NA,NA,NA,NA,NA
403,Cinnamon Bay,NAC,Saint John Island,United States Virgin Islands,18.33,-64.789,175,"ori coords (19.33, -64.8 fell into ocean)",24.8,23.1,26.3,1130,NA,NAC,NAC,NA,NAC,NA,172,Neotropics,Am,Tropical dry forest,365,tropical,NA,NA,NA,NA,NA
404,Co. Laois,NAC,Ireland,United Kingdom,52.95,7.25,260,NA,9.3,NAC,NAC,850,NA,NAC,NAC,NA,NA,NA,173,Palearctic,Cfb,Temperate oceanic forest,NA,extratropical,NA,NA,NA,Baldocchi_2008_bott,Maria
405,Cockscomb,NAC,Stann Creek,Belize,16.794,-88.555,NAC,NA,NAC,NAC,NAC,4000,NA,NAC,NAC,NA,NAC,NA,174,Neotropics,Am,Tropical rainforest,1315,tropical,NA,NA,NA,NA,NA
406,Cocoflux,NAC,Sanma,Vanuatu,-15.43,167.15,80,NA,25.1,NAC,NAC,2763,NA,clay,NAC,NA,NAC,NA,175,Australasia,Af,Tropical rainforest,11,tropical,"Roupsard_2006_poea, Navarro_2008_fdng",NA,NA,NA,NA
407,Cocoli CTFS-ForestGEO plot,NAC,NAC,Panama,8.9877,-79.6166,NAC,lowland,26,NAC,NAC,1808,Mean maximum dry season moisture deficit (mm) =575,NAC,"Oxisols, Inceptisols",NAC,terra firma,NA,7,Neotropics,Am,Tropical moist forest,NA,tropical,Meakem_2017_rots,NA,NA,NA,NA
408,Coconino National Forest,NAC,Arizona,United States of America,35.4453972,-111.7718444,2270,NA,8.7,2.05,14.6,534,NA,NAC,Alfisol,Mollic Eutroboralf,NA,NA,176,Nearctic,Csb,Subtropical mountain system,NA,extratropical,Dore_2010_cawf,NA,NA,NA,Maria
409,Coffs Harbour Eucalyptus grandis Seed Lot,Gympie,Queensland,Australia,-26,152.75,NAC,NA,21.2333,NAC,NAC,1457,NA,NAC,Alfisol,Yellow earth with no evidence of impeded drainage above 1.5 m depth and the remaining area as a gleyed podzolic with some evidence of impeded drainage above 1.5 m depth. Typic Paleudalf and Arenic Paleudalf.,NA,NA,177,Australasia,Cfa,Subtropical humid forest,NA,extratropical,NA,NA,NA,NA,NA
410,Collelongo,NAC,L'Aquila,Italy,41.85,13.59,1564,NA,7.49,NAC,NAC,1168.67,NA,clay loam,NAC,NA,NA,NA,178,Palearctic,Cfa,Subtropical mountain system,NA,extratropical,Valentini_1996_sncd; Valentini_2000_ratm,NA,1,Luyssaert_2007_cbob,Maria
411,Colorado Forest,NAC,Puerto Rico,United States of America,18.3,-65.7,725,NA,NAC,NAC,NAC,3725,NA,NAC,NAC,NA,NAC,Colorado forest,81,Neotropics,Am,Tropical rainforest,357,tropical,NA,Weaver and Murphy 1990; Biotropica 22(1):69-82.,NA,NA,NA
412,COMARA,NAC,Amazonas,Brazil,-0.085,-66.89,NAC,NA,NAC,NAC,NAC,2882,NA,NAC,NAC,NA,NAC,NA,179,Neotropics,Af,Tropical rainforest,1349,tropical,NA,NA,NA,NA,NA
413,Con Permiso,NAC,Alajuela,Costa Rica,10.4556,-84.1763,141,NA,24.8,NAC,NAC,3800,NA,NAC,Inceptisol,NA,NAC,NA,1,Neotropics,Am,Tropical rainforest,1287,tropical,NA,NA,NA,NA,NA
414,Congo Eucalyptus plantation chronosequence,NAC,Kouilou,Congo,-4,12,100,NA,25,NAC,NAC,NAC,dry season between May-Sep,sandy to sandy-clay,Ferrallitic,NA,NAC,NA,180,Afrotropics,Aw,Tropical rainforest,213,tropical,NA,NA,NA,NA,NA
415,Cordillera Central 2550ma.s.l.,NAC,Tolima,Colombia,5,-75,NAC,NA,12.2,NAC,NAC,2115,rainfall seasonality index SR (%) = 0.04,NAC,Cambisol,NA,NAC,NA,181,Neotropics,Cfb,Tropical mountain system,1182,tropical,NA,NA,NA,NA,NA
416,Cordillera Central 3370ma.s.l.,NAC,Tolima,Colombia,5,-75,NAC,NA,7.7,NAC,NAC,1453,rainfall seasonality index SR (%) = 0.34,NAC,Cambisol,NA,NAC,NA,181,Neotropics,Cfb,Tropical mountain system,1183,tropical,NA,NA,NA,NA,NA
417,Cordillera de Piuchue,NAC,Los Lagos,Chile,-42.5,-74,NAC,NA,7.2,NAC,NAC,5000,NA,NAC,NAC,NA,NA,NA,182,Neotropics,Cfb,Temperate oceanic forest,NA,extratropical,NA,Keith_2009_rofb; Liu_2014_htpa,NA,Keith_2009_rofb; Liu_2014_htpa,Maria
418,Corinto,NAC,Limon,Costa Rica,10.204,-83.883,NAC,NA,NAC,NAC,NAC,4346,NA,NAC,NAC,NA,NAC,NA,1,Neotropics,Af,Tropical rainforest,1354,tropical,NA,NA,NA,NA,NA
419,Cornelio,NAC,Alajuela,Costa Rica,10.297,-84.7515,1044,NA,21.1,NAC,NAC,5500,NA,NAC,Andisol,NA,NAC,NA,32,Neotropics,Aw,Tropical rainforest,1307,tropical,NA,NA,NA,NA,NA
420,Costa Rican Carribean,NAC,Limon,Costa Rica,10,-83.5,200,NA,26,NAC,NAC,5130,NA,NAC,Ultisol; Inceptisol,"Forests are found on soils that are Ultisols and Inceptisols, with <35% base saturation, these are deep, well drained, red or yellow in color and with relatively low fertility.",NAC,NA,183,Neotropics,Af,Tropical rainforest,289,tropical,NA,NA,NA,NA,NA
421,Coulissenhieb,NAC,Bayern,Germany,50.15,11.87,780.5,NA,5.8,NAC,NAC,1100,NA,clay loam,"Cambisol, Gleysol, Histosol",NA,NA,NA,67,Palearctic,Cfb,Temperate oceanic forest,NA,extratropical,Mund_2002_gacs,Langusch and Matzner 2002,1,Luyssaert_2007_cbob,Maria
422,Cubuy Annex of the Luquillo Experimental Forest,NAC,Puerto Rico,United States of America,18.283333,-65.883333,425,NA,26.53,NAC,NAC,2500,NA,clay/clay loams,Ultisol,Ultisols derived from volcanoclastic material with dioritic in- trusions,NAC,NA,81,Neotropics,Am,Tropical rainforest,347,tropical,NA,NA,NA,NA,NA
423,Cubuy pine plantation,NAC,Puerto Rico,United States of America,18.3,-66.833333,575,NA,22.3,NAC,NAC,3920,NA,clay,Ultisol,"Los Guineos clay (clayey, mixed, isothermic Epiaquic Tropohumults)",NAC,NA,184,Neotropics,Am,Tropical rainforest,349,tropical,NA,NA,NA,NA,NA
424,Cubuy secondary forest,NAC,Puerto Rico,United States of America,18.3,-66.833333,550,NA,22.3,NAC,NAC,3920,NA,clay,Ultisol,"Los Guineos clay (clayey, mixed, isothermic Epiaquic Tropohumults)",NAC,NA,184,Neotropics,Am,Tropical rainforest,353,tropical,NA,NA,NA,NA,NA
425,Cuieiras Reserve Plateau CUR1,NAC,Amazonas,Brazil,-2.58,-60.1,NAC,NA,NAC,NAC,NAC,2442,rainfall seasonality index SR (%) = 0.34,NAC,Ferralsol,NA,NAC,NA,68,Neotropics,Af,Tropical rainforest,1184,tropical,NA,NA,NA,NA,NA
426,Cuieiras Reserve Plateau CUR3,NAC,Amazonas,Brazil,-2.57,-60.1,NAC,NA,NAC,NAC,NAC,2442,rainfall seasonality index SR (%) = 0.34,NAC,Ferralsol,NA,NAC,NA,68,Neotropics,Af,Tropical rainforest,1186,tropical,NA,NA,NA,NA,NA
427,Cuieiras Reserve Slope CUR4,NAC,Amazonas,Brazil,-2.57,-60.1,NAC,NA,NAC,NAC,NAC,2442,rainfall seasonality index SR (%) = 0.34,NAC,Acrisol,NA,NAC,NA,68,Neotropics,Af,Tropical rainforest,1187,tropical,NA,NA,NA,NA,NA
428,Cuieiras Reserve Valley CUR2,NAC,Amazonas,Brazil,-2.58,-60.1,NAC,NA,NAC,NAC,NAC,2442,rainfall seasonality index SR (%) = 0.34,NAC,Podzol,NA,NAC,NA,68,Neotropics,Af,Tropical rainforest,1185,tropical,NA,NA,NA,NA,NA
429,Cuieiras Reserve Valley CUR5,NAC,Amazonas,Brazil,-2.58,-60.1,NAC,NA,NAC,NAC,NAC,2442,rainfall seasonality index SR (%) = 0.34,NAC,Podzol,NA,NAC,NA,68,Neotropics,Af,Tropical rainforest,1188,tropical,NA,NA,NA,NA,NA
430,Cuieiras/C14,NAC,Amazonas,Brazil,-2.58,-60.1,NI,NA,23,NAC,NAC,2200,NA,clay,NAC,NA,NAC,NA,68,Neotropics,Af,Tropical rainforest,97,tropical,Malhi_1998_cdto; Malhi_1999_tcbo,NA,NA,NA,NA
431,Culebra,NAC,Heredia,Costa Rica,10.4248,-84.0965,158,NA,24.7,NAC,NAC,3942,NA,NAC,Ultisol,NA,NAC,NA,1,Neotropics,Am,Tropical rainforest,1295,tropical,NA,NA,NA,NA,NA
432,Cullenagh,NAC,Laois,Ireland,52.95,-7.25,260,NA,9.3,NAC,NAC,850,NA,clay loam,NAC,NA,NA,NA,185,Palearctic,Cfb,Temperate oceanic forest,NA,extratropical,Saiz_2006,NA,1,Luyssaert_2007_cbob,Maria
433,"Cumberland S.F., Rock Quarry",NAC,Virginia,United States of America,37.572573,-78.263619,NAC,NA,NAC,NAC,NAC,NAC,NA,NAC,NAC,NA,NA,NA,186,Nearctic,Cfa,Subtropical humid forest,NA,extratropical,NA,NA,NA,NA,Maria
434,Curua-Una e-serve,NAC,Para,Brazil,-2,-54,NAC,NA,NAC,NAC,NAC,1714,rainfall seasonality index SR (%) = 0.32,NAC,Ferralsol,NA,NAC,NA,187,Neotropics,Am,Tropical rainforest,1189,tropical,NA,NA,NA,NA,NA
435,Cuyabeno,NAC,Sucumbios,Ecuador,0,-76.2,265,NA,25.72,NAC,NAC,3232,Dry season length 0.26 mths,NAC,inceptisol,NA,terra firma,NA,188,Neotropics,Af,Tropical rainforest,476,tropical,NA,NA,NA,NA,NA
436,Cuzco Amazonico 1,NAC,Madre de Dios,Peru,-12.5,-68.95,200,NA,25.6,NAC,NAC,2075,Dry season length 3.46 mths,NAC,Holocene alluvial (inceptisol),NA,"terra firma, floodplain",NA,189,Neotropics,Af,Tropical rainforest,35,tropical,NA,NA,NA,NA,NA
437,Cuzco Amazonico 2,NAC,Madre de Dios,Peru,-12.49,-69.11,NAC,NA,25.2,NAC,NAC,2160,Dry season length 3.46 mths,NAC,Holocene alluvial (inceptisol),NA,"terra firma, floodplain",NA,189,Neotropics,Af,Tropical rainforest,36,tropical,NA,NA,NA,NA,NA
438,CVL-01_Cavalla 1,NAC,Grand Gedeh,Liberia,6.19,-8.18,257,NA,26.4,NAC,NAC,1958,NA,NAC,NAC,NA,NAC,NA,190,Afrotropics,Aw,Tropical rainforest,257,tropical,NA,NA,NA,NA,NA
439,CVL-08_Cavalla 8,NAC,Grand Gedeh,Liberia,6.19,-8.18,281,NA,26.4,NAC,NAC,1958,NA,NAC,NAC,NA,NAC,NA,190,Afrotropics,Aw,Tropical rainforest,258,tropical,NA,NA,NA,NA,NA
440,CVL-10_Cavalla 10,NAC,Grand Gedeh,Liberia,6.19,-8.18,262,NA,26.4,NAC,NAC,1958,NA,NAC,NAC,NA,NAC,NA,190,Afrotropics,Aw,Tropical rainforest,259,tropical,NA,NA,NA,NA,NA
441,CVL-11_Cavalla 11,NAC,Grand Gedeh,Liberia,6.19,-8.18,260,NA,26.4,NAC,NAC,1958,NA,NAC,NAC,NA,NAC,NA,190,Afrotropics,Aw,Tropical rainforest,260,tropical,NA,NA,NA,NA,NA
442,Cypress Florida,NAC,Florida,United States of America,29.73,-82.15,NI,NA,21,NAC,NAC,1300,NA,clay loam,NAC,NA,NA,NA,52,Nearctic,Cfa,Subtropical humid forest,NA,extratropical,Clark_1999_econ; ,NA,1,Luyssaert_2007_cbob,Maria
443,DAD-31f_Dadieso 3 occasionally flooded,NAC,Western Region,Ghana,5.97,-3.03,142,NA,26.6,NAC,NAC,1658,NA,NAC,NAC,NA,NAC,NA,191,Afrotropics,Am,Tropical rainforest,246,tropical,NA,NA,NA,NA,NA
444,DAD-32f_Dadieso 3 terra firma,NAC,Western Region,Ghana,5.97,-3.03,142,NA,26.6,NAC,NAC,1658,NA,NAC,NAC,NA,NAC,NA,191,Afrotropics,Am,Tropical rainforest,247,tropical,NA,NA,NA,NA,NA
445,DAD-41g_Dadieso 4 occasionally flooded,NAC,Western Region,Ghana,5.99,-3.03,178,NA,26.5,NAC,NAC,1648,NA,NAC,NAC,NA,NAC,NA,191,Afrotropics,Am,Tropical rainforest,248,tropical,NA,NA,NA,NA,NA
446,DAD-42g_Dadieso 4 terra firma,NAC,Western Region,Ghana,5.99,-3.03,140,NA,26.5,NAC,NAC,1648,NA,NAC,NAC,NA,NAC,NA,191,Afrotropics,Am,Tropical rainforest,249,tropical,NA,NA,NA,NA,NA
447,Dafeng,Yichun,Heilongjiang,China,47.7,128.9,NAC,NA,-0.9,NAC,NAC,470,NA,NAC,NAC,NA,NA,NA,192,Palearctic,Dwb,Temperate continental forest,NA,extratropical,NA,Liu_2014_htpa,NA,Liu_2014_htpa,Maria
448,Dahai,Wangqing,Jilin,China,43.3,129.7,NAC,NA,1.6,NAC,NAC,825,NA,NAC,NAC,NA,NA,NA,193,Palearctic,Dwb,Temperate continental forest,NA,extratropical,NA,Liu_2014_htpa,NA,Liu_2014_htpa,Maria
449,Dahailin Larix,NAC,Heilongjiang,China,44.3,129.4,NAC,NA,1.4,NAC,NAC,732,NA,NAC,NAC,NA,NA,NA,194,Palearctic,Dwb,Temperate continental forest,NA,extratropical,NA,Liu_2014_htpa,NA,Liu_2014_htpa,Maria
450,"Dahailin Picea, Abies",NAC,Heilongjiang,China,44.3,129.4,NAC,NA,0.4,NAC,NAC,744,NA,NAC,NAC,NA,NA,NA,194,Palearctic,Dwb,Temperate continental forest,NA,extratropical,NA,Liu_2014_htpa,NA,Liu_2014_htpa,Maria
451,"Dahailin Populus, Betula",NAC,Heilongjiang,China,44.3,128.4,NAC,NA,3.4,NAC,NAC,682,NA,NAC,NAC,NA,NA,NA,195,Palearctic,Dwb,Temperate continental forest,NA,extratropical,NA,Liu_2014_htpa,NA,Liu_2014_htpa,Maria
452,Dalongsi,Qilian,Qinghai,China,38.7,100,NAC,NA,-3.7,NAC,NAC,347,NA,NAC,NAC,NA,NA,NA,196,Palearctic,BSk,Temperate mountain system,NA,extratropical,NA,Liu_2014_htpa,NA,Liu_2014_htpa,Maria
453,"Dalu Cupressus, Sabina",Nanping,Sichuan,China,33.59,103.57,NAC,NA,3.4,NAC,NAC,796,NA,NAC,NAC,NA,NA,NA,54,Palearctic,Dwb,Temperate mountain system,NA,extratropical,NA,Liu_2014_htpa,NA,Liu_2014_htpa,Maria
454,"Dalu Picea, Abies 1",Nanping,Sichuan,China,33.63,103.76,NAC,NA,3.7,NAC,NAC,817,NA,NAC,NAC,NA,NA,NA,54,Palearctic,Dwb,Temperate mountain system,NA,extratropical,NA,Liu_2014_htpa,NA,Liu_2014_htpa,Maria
455,"Dalu Picea, Abies 10",Nanping,Sichuan,China,33.6,103.33,NAC,NA,2.7,NAC,NAC,769,NA,NAC,NAC,NA,NA,NA,54,Palearctic,Dwb,Temperate mountain system,NA,extratropical,NA,Liu_2014_htpa,NA,Liu_2014_htpa,Maria
456,"Dalu Picea, Abies 11",Nanping,Sichuan,China,33.6,103.74,NAC,NA,3.7,NAC,NAC,816,NA,NAC,NAC,NA,NA,NA,54,Palearctic,Dwb,Temperate mountain system,NA,extratropical,NA,Liu_2014_htpa,NA,Liu_2014_htpa,Maria
