site.ID,sites.sitename,network,alt.names,super.site,city,state,country,lat,lon,masl,geography.notes,mat,min.temp,max.temp,map,climate.notes,soil.texture,sand,silt,clay,soil.classification,soil.notes,hydrology.notes,site.notes,geographic.area,biogeog,Koeppen,FAO.ecozone,site.ID.v1,measurement.refs,site.ref,ref.notes,lacks.info.from.ori.pub,loaded.from,loaded.by,potential_duplicate_group,potential_duplicate_group_parsed,confirmed.unique,potential.duplicates.manual,duplicate.notes
1,4 Rios,NA,NA,NA,NAC,Heredia,Costa Rica,10.3888,-84.1327,248,NA,24.2,NAC,NAC,3967,NA,NAC,NAC,NAC,NAC,Inceptisol,NA,NAC,NA,1,North America,Am,Tropical rainforest,1301,Cifuentes-Jara_2008_abae,NA,NA,NA,Bonner_2013_amgc,NA,1,1,1,NA,NA
2,Aakre,NA,NA,NA,NAC,Valga,Estonia,58.03,26.016,NAC,NA,5.4,NAC,NAC,675,NA,sandy loam,NAC,NAC,NAC,Haplic Umbrisol,Haplic Umbrisol,NA,NA,2,Europe,Dfb,Temperate continental forest,NA,Uri_2012_bpac,NA,NA,NA,NA,NA,0,0,NA,NA,NA
3,Aberfeldy/Griffins,NA,NA,NA,NAC,Perth and Kinross,United Kingdom,56.6,-3.78,340,NA,7.6,NAC,NAC,1195.25,NA,loam,NAC,NAC,NAC,NAC,NA,NA,NA,3,Europe,Cfb,Boreal coniferous forest,NA,CarboEurope-IP_2006_cd; Valentini_2000_ratm,NA,CD Carbodata,1,Luyssaert_2007_cbob,Maria,0,0,NA,NA,NA
4,Acahual 1,NA,NA,NA,Hidalgotitlan,Veracruz,Mexico,17.29,-94.58,150,NA,25.775,NAC,NAC,3640,NA,NAC,NAC,NAC,NAC,Oxisol; Alfisol,"Soils are derived principally from sedimentary rocks of limestone, shale and sandstone, with Oxisols and Alfisols being the most comon soil types encountered.",NAC,NA,4,North America,Aw,Tropical rainforest,336,Williams-Linera_1983_banc,NA,NA,NA,Anderson_2006_toba,NA,0,0,NA,NA,NA
5,Acahual 2,NA,NA,NA,Hidalgotitlan,Veracruz,Mexico,17.29,-94.58,150,NA,25.775,NAC,NAC,3640,NA,NAC,NAC,NAC,NAC,Oxisol; Alfisol,"Soils are derived principally from sedimentary rocks of limestone, shale and sandstone, with Oxisols and Alfisols being the most comon soil types encountered.",NAC,NA,4,North America,Aw,Tropical rainforest,337,Williams-Linera_1983_banc,NA,NA,NA,Anderson_2006_toba,NA,0,0,NA,NA,NA
6,Agrovila Grande Esperanca.BR-230,NA,NA,NA,Altamira,Para,Brazil,-3.366667,-52.616667,100,NA,23.65,NAC,NAC,1697,NA,NAC,NAC,NAC,NAC,"ultisols, oxisols, and a few spots of alfisols",NA,NAC,NA,5,South America,Am,Tropical rainforest,70,Guimaraes_1993_ldce,NA,NA,NA,Anderson_2006_toba,NA,0,0,NA,NA,NA
7,Agua Pudre plot E AGP-01,NA,NA,NA,NAC,Amazonas,Colombia,-3.73,-70.4,105,NA,25.5,NAC,NAC,2723,NA,clay loam,NAC,NAC,NAC,Oxisol,"Endostagnic Plinthosol (Alumic, Hyperdystic)",NAC,NA,6,South America,Af,Tropical rainforest,443,Aragao_2009_aabn; Malhi_2011_taoe,Aragao_2009_aabn; Jimenez_2009_frdf,NA,NA,NA,NA,0,0,NA,NA,NA
8,Agua Pudre plot U AGP-02,NA,NA,NA,NAC,Amazonas,Colombia,-3.72,-70.3,110,NA,25.5,NAC,NAC,2723,NA,clay loam,NAC,NAC,NAC,Oxisol,"Endostagnic Plinthosol (Alumic, Hyperdystic)",NAC,NA,6,South America,Af,Tropical rainforest,444,Aragao_2009_aabn; Malhi_2011_taoe,Aragao_2009_aabn; Jimenez_2009_frdf,NA,NA,NA,NA,0,0,NA,NA,NA
9,Aguas Claras,NA,NA,NA,NAC,Colon,Panama,9.333333,-79.833333,NAC,in Soberania National Park.,NAC,NAC,NAC,2650,4 month long dry season from Dec-April,slightly clayey loam,NAC,NAC,NAC,NAC,Dark-yellowish-brown surface,NAC,NA,7,North America,Am,Tropical rainforest,281,Kraenzel_2003_csoh,NA,NA,NA,NA,NA,4,1,1,NA,NA
10,Agumbe,NA,NA,NA,NAC,Karnataka,India,13.52,75.1,575,NA,22.2,NAC,NAC,7670,NA,NAC,NAC,NAC,NAC,NAC,Oxisol,NAC,Rain forest,8,Asia,Aw,Tropical rainforest,329,Clark_2013_ntfc; Olson_2013_nmna; Rai_1986_esof,NA,Rai_1986,NA,NA,NA,0,0,NA,NA,NA
11,Aheden,NA,NA,NA,NAC,Vasterbotten,Sweden,64.21,19.5,175,NA,1,NAC,NAC,588,NA,loam,NAC,NAC,NAC,NAC,NA,NA,NA,9,Europe,Dfc,Boreal coniferous forest,NA,Bhupinderpal-Singh_2003_tras; Hahn_2006_catf; Hogberg_2001_lfgs; Luyssaert_2007_cbob; Schulze_2000_tcan,Schulze_2000_tcan,NA,1,Luyssaert_2007_cbob,Maria,0,0,NA,NA,NA
12,Aheden 2,NA,NA,NA,NAC,Vasterbotten,Sweden,64.23,19.76,175,NA,1,NAC,NAC,600,NA,loam,NAC,NAC,NAC,NAC,NA,NA,NA,9,Europe,Dfc,Boreal coniferous forest,NA,Hogberg_2001_lfgs; Singh_2003_tras,NA,Bhupinderpal-Singh_2003,1,Luyssaert_2007_cbob,Maria,0,0,NA,NA,NA
13,Ailao,NA,NA,NA,NAC,Yunnan,China,24.5333,101.0017,NAC,NA,11.3,NAC,NAC,1840,NA,NAC,NAC,NAC,NAC,NAC,NA,NA,NA,10,Asia,Cwb,Subtropical mountain system,NA,Liu_2002_bana; Tan_2011_aosa,NA,Liu_2014_htpa,NA,Liu_2014_htpa,Maria,5,1,NA,NA,NA
14,Akou,NA,NA,NA,Akou,Hyogo,Japan,34.7349444,134.3743056,10,NA,15.43,NAC,NAC,962,NA,NAC,NAC,NAC,NAC,NAC,NA,NA,NA,11,Asia,Cfa,Subtropical humid forest,NA,Kosugi_2005_tyoc,NA,NA,NA,Yu_2014_hcdu,Maria,0,0,NA,NA,NA
15,Alaska,NA,NA,NA,NAC,Alaska,United States of America,64.75,-148.25,NAC,NA,-3.5,NAC,NAC,269,NA,NAC,NAC,NAC,NAC,NAC,NA,NA,NA,12,North America,Dfc,Boreal tundra woodland,NA,Oechel_1986_trob,NA,Keith_2009_rofb; Liu_2014_htpa,NA,Keith_2009_rofb; Liu_2014_htpa,Maria,0,0,NA,NA,NA
16,Alaska - interior,NA,NA,NA,NAC,Alaska,United States of America,64,-147,NAC,NA,NAC,NAC,NAC,NAC,NA,NAC,NAC,NAC,NAC,NAC,NA,NA,NA,13,North America,Dfc,Boreal mountain system,NA,Ueyama_2006_cfot,Ueyama_2006_cfot,NA,1,Baldocchi_2008_bott,Maria,0,0,NA,NA,NA
17,Alaskan coast,NA,NA,NA,NAC,Alaska,United States of America,58.37,-134.72,NAC,NA,10,NAC,NAC,3550,NA,NAC,NAC,NAC,NAC,NAC,NA,NA,NA,14,North America,Dfc,Temperate mountain system,NA,Leighty_2006_eomo,NA,Keith_2009_rofb; Liu_2014_htpa,NA,Keith_2009_rofb; Liu_2014_htpa,Maria,0,0,NA,NA,NA
18,Alatskivi 1,NA,NA,NA,NAC,Tartu,Estonia,58.55,27.083,NAC,NA,5.4,NAC,NAC,675,NA,sandy loam,NAC,NAC,NAC,Haplic Umbrisol,Haplic Umbrisol,NA,NA,15,Europe,Dfb,Temperate continental forest,NA,Uri_2012_bpac,NA,NA,NA,NA,NA,0,0,NA,NA,NA
19,Alatskivi 2,NA,NA,NA,NAC,Tartu,Estonia,58.617,27.03,NAC,NA,5.4,NAC,NAC,675,NA,sandy loam,NAC,NAC,NAC,Gleyic Umbrisol,Gleyic Umbrisol,NA,NA,15,Europe,Dfb,Temperate continental forest,NA,Uri_2012_bpac; Varik_2015_cbif,NA,NA,NA,NA,NA,0,0,NA,NA,NA
20,Alava,NA,NA,NA,Tutuila,Eastern District,American Samoa,-14.264369,-170.688202,NAC,ori coords fell in ocean. New coords from gmaps,26.9,NAC,NAC,3207,NA,clay,NAC,NAC,NAC,Mollisol,Lithic Hapludoll-Rock outcrop association,NAC,NA,16,Oceania,Af,Tropical rainforest,12,Webb_1999_daso,NA,NA,NA,NA,NA,7,1,1,NA,NA
21,Alberga,NA,NA,NA,NAC,Para,Suriname,5.341,-55.764,NAC,NA,NAC,NAC,NAC,2156,NA,NAC,NAC,NAC,NAC,NAC,NA,NAC,NA,17,South America,Af,Tropical moist forest,1367,Poorter_2015_decs,NA,NA,NA,NA,NA,0,0,NA,NA,NA
22,Alberta,NA,NA,NA,NAC,Alberta,Canada,54.25,-117,NAC,NA,2.6,NAC,NAC,500,NA,NAC,NAC,NAC,NAC,NAC,NA,NA,NA,18,North America,Dfc,Boreal coniferous forest,NA,Banfield_2002_virs,NA,Keith_2009_rofb; Liu_2014_htpa,NA,Keith_2009_rofb; Liu_2014_htpa,Maria,0,0,NA,NA,NA
23,Alberta AB10,NA,NA,NA,NAC,Alberta,Canada,50.27,-114.59,1903,NA,0.8,NAC,NAC,626,MAT and MAP from Liu2014,NAC,NAC,NAC,NAC,NAC,NA,NA,NA,19,North America,Dfc,Temperate mountain system,NA,Ma_2012_rdri,NA,Liu_2014_htpa,NA,Liu_2014_htpa,Maria,0,0,NA,NA,NA
24,Alberta AB11,NA,NA,NA,NAC,Alberta,Canada,50.26,-114.6,2010,NA,0.2,NAC,NAC,635,MAT and MAP from Liu2014,NAC,NAC,NAC,NAC,NAC,NA,NA,NA,19,North America,Dfc,Temperate mountain system,NA,Ma_2012_rdri,NA,Liu_2014_htpa,NA,Liu_2014_htpa,Maria,0,0,NA,NA,NA
25,Alberta AB12,NA,NA,NA,NAC,Alberta,Canada,50.25,-114.6,2010,NA,0.2,NAC,NAC,636,MAT and MAP from Liu2014,NAC,NAC,NAC,NAC,NAC,NA,NA,NA,19,North America,Dfc,Temperate mountain system,NA,Ma_2012_rdri,NA,Liu_2014_htpa,NA,Liu_2014_htpa,Maria,0,0,NA,NA,NA
26,Alberta AB13,NA,NA,NA,NAC,Alberta,Canada,50.22,-114.59,2010,NA,-0.1,NAC,NAC,646,MAT and MAP from Liu2014,NAC,NAC,NAC,NAC,NAC,NA,NA,NA,19,North America,Dfc,Temperate mountain system,NA,Ma_2012_rdri,NA,Liu_2014_htpa,NA,Liu_2014_htpa,Maria,0,0,NA,NA,NA
27,Alberta AB14,NA,NA,NA,NAC,Alberta,Canada,50.25,-114.59,2010,NA,0.2,NAC,NAC,638,MAT and MAP from Liu2014,NAC,NAC,NAC,NAC,NAC,NA,NA,NA,19,North America,Dfc,Temperate mountain system,NA,Ma_2012_rdri,NA,Liu_2014_htpa,NA,Liu_2014_htpa,Maria,0,0,NA,NA,NA
28,Alberta AB15,NA,NA,NA,NAC,Alberta,Canada,50.29,-114.57,1903,NA,0.8,NAC,NAC,622,MAT and MAP from Liu2014,NAC,NAC,NAC,NAC,NAC,NA,NA,NA,19,North America,Dfc,Temperate mountain system,NA,Ma_2012_rdri,NA,Liu_2014_htpa,NA,Liu_2014_htpa,Maria,0,0,NA,NA,NA
29,Alberta AB16,NA,NA,NA,NAC,Alberta,Canada,51.45,-115.05,1532,NA,0.4,NAC,NAC,555,MAT and MAP from Liu2014,NAC,NAC,NAC,NAC,NAC,NA,NA,NA,20,North America,Dfc,Boreal coniferous forest,NA,Ma_2012_rdri,NA,Liu_2014_htpa,NA,Liu_2014_htpa,Maria,0,0,NA,NA,NA
30,Alberta AB17,NA,NA,NA,NAC,Alberta,Canada,52.4,-115.67,1501,NA,0.8,NAC,NAC,569,MAT and MAP from Liu2014,NAC,NAC,NAC,NAC,NAC,NA,NA,NA,21,North America,Dfc,Boreal coniferous forest,NA,Ma_2012_rdri,NA,Liu_2014_htpa,NA,Liu_2014_htpa,Maria,0,0,NA,NA,NA
31,Alberta AB18,NA,NA,NA,NAC,Alberta,Canada,54.51,-117.62,844,NA,2.2,NAC,NAC,597,MAT and MAP from Liu2014,NAC,NAC,NAC,NAC,NAC,NA,NA,NA,22,North America,Dfc,Boreal coniferous forest,NA,Ma_2012_rdri,NA,Liu_2014_htpa,NA,Liu_2014_htpa,Maria,0,0,NA,NA,NA
32,Alberta AB19,NA,NA,NA,NAC,Alberta,Canada,56.79,-118.59,845,NA,-0.6,NAC,NAC,456,MAT and MAP from Liu2014,NAC,NAC,NAC,NAC,NAC,NA,NA,NA,23,North America,Dfc,Boreal coniferous forest,NA,Ma_2012_rdri,NA,Liu_2014_htpa,NA,Liu_2014_htpa,Maria,0,0,NA,NA,NA
33,Alberta AB20,NA,NA,NA,NAC,Alberta,Canada,56.55,-119.31,815,NA,-0.1,NAC,NAC,439,MAT and MAP from Liu2014,NAC,NAC,NAC,NAC,NAC,NA,NA,NA,24,North America,Dfc,Boreal coniferous forest,NA,Ma_2012_rdri,NA,Liu_2014_htpa,NA,Liu_2014_htpa,Maria,0,0,NA,NA,NA
34,Alberta AB21,NA,NA,NA,NAC,Alberta,Canada,57.13,-118.33,747,NA,-0.9,NAC,NAC,450,MAT and MAP from Liu2014,NAC,NAC,NAC,NAC,NAC,NA,NA,NA,25,North America,Dfc,Boreal coniferous forest,NA,Ma_2012_rdri,NA,Liu_2014_htpa,NA,Liu_2014_htpa,Maria,0,0,NA,NA,NA
35,Alberta AB22,NA,NA,NA,NAC,Alberta,Canada,55.51,-114.25,746,NA,-0.9,NAC,NAC,524,MAT and MAP from Liu2014,NAC,NAC,NAC,NAC,NAC,NA,NA,NA,26,North America,Dfc,Boreal coniferous forest,NA,Ma_2012_rdri,NA,Liu_2014_htpa,NA,Liu_2014_htpa,Maria,0,0,NA,NA,NA
36,Alberta AB23,NA,NA,NA,NAC,Alberta,Canada,50.14,-114.51,1882,NA,-0.7,NAC,NAC,652,MAT and MAP from Liu2014,NAC,NAC,NAC,NAC,NAC,NA,NA,NA,19,North America,Dfc,Temperate mountain system,NA,Ma_2012_rdri,NA,Liu_2014_htpa,NA,Liu_2014_htpa,Maria,0,0,NA,NA,NA
37,Alberta AB24,NA,NA,NA,NAC,Alberta,Canada,50.15,-114.5,1882,NA,-0.5,NAC,NAC,646,MAT and MAP from Liu2014,NAC,NAC,NAC,NAC,NAC,NA,NA,NA,19,North America,Dfc,Temperate mountain system,NA,Ma_2012_rdri,NA,Liu_2014_htpa,NA,Liu_2014_htpa,Maria,0,0,NA,NA,NA
38,Alberta AB25,NA,NA,NA,NAC,Alberta,Canada,50.16,-114.51,1882,NA,-1.2,NAC,NAC,651,MAT and MAP from Liu2014,NAC,NAC,NAC,NAC,NAC,NA,NA,NA,19,North America,Dfc,Temperate mountain system,NA,Ma_2012_rdri,NA,Liu_2014_htpa,NA,Liu_2014_htpa,Maria,0,0,NA,NA,NA
39,Alberta AB26,NA,NA,NA,NAC,Alberta,Canada,50.16,-114.5,1882,NA,-1,NAC,NAC,649,MAT and MAP from Liu2014,NAC,NAC,NAC,NAC,NAC,NA,NA,NA,19,North America,Dfc,Temperate mountain system,NA,Ma_2012_rdri,NA,Liu_2014_htpa,NA,Liu_2014_htpa,Maria,0,0,NA,NA,NA
40,Alberta AB27,NA,NA,NA,NAC,Alberta,Canada,50.2,-114.55,2448,NA,-0.6,NAC,NAC,649,MAT and MAP from Liu2014,NAC,NAC,NAC,NAC,NAC,NA,NA,NA,19,North America,Dfc,Temperate mountain system,NA,Ma_2012_rdri,NA,Liu_2014_htpa,NA,Liu_2014_htpa,Maria,0,0,NA,NA,NA
41,Alberta AB28,NA,NA,NA,NAC,Alberta,Canada,50.19,-114.55,2448,NA,-0.9,NAC,NAC,652,MAT and MAP from Liu2014,NAC,NAC,NAC,NAC,NAC,NA,NA,NA,19,North America,Dfc,Temperate mountain system,NA,Ma_2012_rdri,NA,Liu_2014_htpa,NA,Liu_2014_htpa,Maria,0,0,NA,NA,NA
42,Alberta AB29,NA,NA,NA,NAC,Alberta,Canada,53.03,-115.25,929,NA,1.8,NAC,NAC,543,MAT and MAP from Liu2014,NAC,NAC,NAC,NAC,NAC,NA,NA,NA,27,North America,Dfc,Boreal coniferous forest,NA,Ma_2012_rdri,NA,Liu_2014_htpa,NA,Liu_2014_htpa,Maria,0,0,NA,NA,NA
43,Alberta AB30,NA,NA,NA,NAC,Alberta,Canada,53.28,-115.45,920,NA,1.6,NAC,NAC,559,MAT and MAP from Liu2014,NAC,NAC,NAC,NAC,NAC,NA,NA,NA,28,North America,Dfc,Boreal coniferous forest,NA,Ma_2012_rdri,NA,Liu_2014_htpa,NA,Liu_2014_htpa,Maria,0,0,NA,NA,NA
44,Alberta AB31,NA,NA,NA,NAC,Alberta,Canada,55.14,-114.82,784,NA,-1.1,NAC,NAC,551,MAT and MAP from Liu2014,NAC,NAC,NAC,NAC,NAC,NA,NA,NA,29,North America,Dfc,Boreal coniferous forest,NA,Ma_2012_rdri,NA,Liu_2014_htpa,NA,Liu_2014_htpa,Maria,0,0,NA,NA,NA
45,Alberta AB5,NA,NA,NA,NAC,Alberta,Canada,54.17,-116.77,881,NA,2.6,NAC,NAC,579,MAT and MAP from Liu2014,NAC,NAC,NAC,NAC,NAC,NA,NA,NA,18,North America,Dfc,Boreal coniferous forest,NA,Ma_2012_rdri,NA,Liu_2014_htpa,NA,Liu_2014_htpa,Maria,0,0,NA,NA,NA
46,Alberta AB6,NA,NA,NA,NAC,Alberta,Canada,55.33,-111.84,661,NA,0.2,NAC,NAC,475,MAT and MAP from Liu2014,NAC,NAC,NAC,NAC,NAC,NA,NA,NA,30,North America,Dfc,Boreal coniferous forest,NA,Ma_2012_rdri,NA,Liu_2014_htpa,NA,Liu_2014_htpa,Maria,0,0,NA,NA,NA
47,Alberta AB7,NA,NA,NA,NAC,Alberta,Canada,49.38,-114.39,1490,NA,2.5,NAC,NAC,669,MAT and MAP from Liu2014,NAC,NAC,NAC,NAC,NAC,NA,NA,NA,31,North America,Dfc,Temperate mountain system,NA,Ma_2012_rdri,NA,Liu_2014_htpa,NA,Liu_2014_htpa,Maria,0,0,NA,NA,NA
48,Alberta AB8,NA,NA,NA,NAC,Alberta,Canada,49.34,-114.15,1435,NA,1.5,NAC,NAC,648,MAT and MAP from Liu2014,NAC,NAC,NAC,NAC,NAC,NA,NA,NA,31,North America,Dfc,Temperate mountain system,NA,Ma_2012_rdri,NA,Liu_2014_htpa,NA,Liu_2014_htpa,Maria,0,0,NA,NA,NA
49,Alberta AB9,NA,NA,NA,NAC,Alberta,Canada,50.18,-114.47,1882,NA,0,NAC,NAC,631,MAT and MAP from Liu2014,NAC,NAC,NAC,NAC,NAC,NA,NA,NA,19,North America,Dfc,Temperate mountain system,NA,Ma_2012_rdri,NA,Liu_2014_htpa,NA,Liu_2014_htpa,Maria,0,0,NA,NA,NA
50,Aleman,NA,NA,NA,NAC,Alajuela,Costa Rica,10.3019,-84.7408,962,NA,21.6,NAC,NAC,5800,NA,NAC,NAC,NAC,NAC,Andisol,NA,NAC,NA,32,North America,Aw,Tropical rainforest,1306,Cifuentes-Jara_2008_abae,NA,NA,NA,Bonner_2013_amgc,NA,0,0,NA,NA,NA
51,Aleza Lake,NA,NA,NA,NAC,British Columbia,Canada,54.05,-122.05,NI,NA,3,NAC,NAC,900,NA,sandy loam,NAC,NAC,NAC,NAC,NA,NA,NA,33,North America,Dfc,Temperate mountain system,NA,Fredeen_2007_wdrs,Fredeen_2007_wdrs,NA,1,Luyssaert_2007_cbob,Maria,0,0,NA,NA,NA
52,Alkkia Scots pine plantation,NA,NA,NA,NAC,Satakunta,Finland,62.1764333,22.7836833,159,NA,NAC,NAC,NAC,NAC,NA,NAC,NAC,NAC,NAC,NAC,NA,NA,NA,34,Europe,Dfc,Boreal coniferous forest,NA,Lohila_2007_cdea,Lohila_2007_cdea,NA,NA,Baldocchi_2008_bott,Maria,11,1,NA,NA,NA
53,Allpahuayo A,NA,NA,NA,NAC,Loreto,Peru,-4,-73.4,NAC,NA,NAC,NAC,NAC,NAC,NA,NAC,NAC,NAC,NAC,NAC,NA,NAC,NA,35,South America,Af,Tropical rainforest,1421,Chao_2009_atdq,NA,NA,NA,Chao_2009_atdq,NA,0,0,NA,NA,NA
54,Allpahuayo A ALP11/ALP12,NA,NA,NA,NAC,Loreto,Peru,-3.95,-73.4333,120,NA,25.2,NAC,NAC,2689,NA,sandy loam,NAC,NAC,NAC,Alisol/Gleysol,"This site is located on an infertile, sandy upper soil layer; however, there is evidence that tree roots may have access to a deeper, more fertile soil and thus contribute to the high productivity observed (P.V.A. Fine, personal communications).",NAC,NA,35,South America,Af,Tropical rainforest,459,del Aguila-Pasquel_2014_tsco; Malhi_2017_tvop,del Aguila-Pasquel_2014_tsco,NA,NA,Malhi_2015_tlbp,NA,13,1,NAC,NA,needs review
55,Allpahuayo A clay-rich soils,NA,NA,NA,NAC,Loreto,Peru,-3.95,-73.43,120,NA,26.3,NAC,NAC,2762,Dry season length 0.77 mths,clay-rich,NAC,NAC,NAC,entisol (typic endoaquent),NA,terra firma,NA,35,South America,Af,Tropical rainforest,58,Baker_2004_ibia; Malhi_2004_tacw,NA,NA,NA,NA,NA,13,1,NAC,NA,needs review
56,Allpahuayo A sandy soils,NA,NA,NA,NAC,Loreto,Peru,-3.95,-73.43,120,NA,26.3,NAC,NAC,2762,Dry season length 0.77 mths,sandy,NAC,NAC,NAC,ultisol (typic paleudult),NA,terra firma,NA,35,South America,Af,Tropical rainforest,59,Baker_2004_ibia; Malhi_2004_tacw,NA,NA,NA,NA,NA,13,1,NAC,NA,needs review
57,Allpahuayo B,NA,NA,NA,NAC,Loreto,Peru,-4,-73.4,NAC,NA,NAC,NAC,NAC,NAC,NA,NAC,NAC,NAC,NAC,NAC,NA,NAC,NA,35,South America,Af,Tropical rainforest,1422,Chao_2009_atdq,NA,NA,NA,Chao_2009_atdq,NA,0,0,NA,NA,NA
58,Allpahuayo B clay-rich soils,NA,NA,NA,NAC,Loreto,Peru,-3.95,-73.43,114,NA,26.3,NAC,NAC,2763,Dry season length 0.77 mths,clay-rich,NAC,NAC,NAC,ultisol (typic hapludult),NA,terra firma,NA,35,South America,Af,Tropical rainforest,60,Baker_2004_ibia; Malhi_2004_tacw,Malhi_2004_tacw,NA,NA,NA,NA,13,1,NAC,NA,needs review
59,Allpahuayo B sandy soils,NA,NA,NA,NAC,Loreto,Peru,-3.95,-73.43,114,NA,26.3,NAC,NAC,2763,Dry season length 0.77 mths,sandy,NAC,NAC,NAC,entisol (spodic udipsamment),NA,terra firma,NA,35,South America,Af,Tropical rainforest,61,Baker_2004_ibia; Malhi_2004_tacw,Malhi_2004_tacw,NA,NA,NA,NA,13,1,NAC,NA,needs review
60,Allpahuayo C ALP30,NA,NA,NA,NAC,Loreto,Peru,-3.9543,-73.4267,150,NA,25.2,NAC,NAC,2689,NA,loamy sand,NAC,NAC,NAC,Arenosol,NA,NAC,NA,35,South America,Af,Tropical rainforest,460,Chao_2009_atdq; del Aguila-Pasquel_2014_tsco; Malhi_2017_tvop,del Aguila-Pasquel_2014_tsco,NA,NA,NA,NA,13,1,NAC,NA,needs review
61,AM10,NA,NA,NA,Manaus,Amazonas,Brazil,-3.06,-60,NAC,NA,25.6,NAC,NAC,2100,NA,clay,NAC,NAC,NAC,Oxisol,Mostly clayey oxisols with patches of sandy soils in valley bottoms (AM10).,NAC,NA,36,South America,Af,Tropical rainforest,82,Steininger_2000_sfsa,NA,NA,NA,Anderson_2006_toba,NA,0,0,NA,NA,NA
62,Amacayacu E,NA,NA,NA,NAC,Amazonas,Colombia,-3.72,-70.3,NAC,NA,NAC,NAC,NAC,2888,rainfall seasonality index SR (%) = 0.13,NAC,NAC,NAC,NAC,Plinthosol,NA,NAC,NA,6,South America,Af,Tropical rainforest,1167,Aragao_2009_aabn; Chave_2010_rasp,NA,NA,NA,Chave_2010_rasp,NA,0,0,NA,NA,NA
63,Amacayacu U,NA,NA,NA,NAC,Amazonas,Colombia,-3.72,-70.3,NAC,NA,NAC,NAC,NAC,2888,rainfall seasonality index SR (%) = 0.13,NAC,NAC,NAC,NAC,Plinthosol,NA,NAC,NA,6,South America,Af,Tropical rainforest,1168,Aragao_2009_aabn; Chave_2010_rasp,NA,NA,NA,Chave_2010_rasp,NA,0,0,NA,NA,NA
64,Amalau,NA,NA,NA,Tutuila,Eastern District,American Samoa,-14.256152,-170.661824,NAC,ori coords fell in ocean. New coords from gmaps,26.9,NAC,NAC,3207,NA,stony silty clay loam (talus),NAC,NAC,NAC,NAC,"very stony silty clay loam (Nakamura 1984), hereafter referred to as 'talus' and characterized by a loose layer of variable-sized stones and rocks overlaying a clay soil",NAC,NA,16,Oceania,Af,Tropical rainforest,13,Webb_1999_daso,NA,NA,NA,NA,NA,7,1,1,NA,NA
65,Anandgoan,NA,NA,NA,NAC,Chhattisgarh,India,21.9,81.55,300,NA,27.75,13.2,42.3,1200,NA,clay,NAC,NAC,NAC,Entisol,The soil of the study area is red laterite derived from metamorphicrock with stones and ferruginous gravel and classifed as Entisols.,NAC,NA,37,Asia,Aw,Tropical dry forest,397,Swamy_2004_tgba,NA,NA,NA,Swamy_2004_tgba,NA,0,0,1,NA,NA
66,"Anangu, A1",NA,NA,NA,NAC,Orellana,Ecuador,-0.53,-76.43,250,NA,25.77,NAC,NAC,3252,Dry season length 0.31 mths,NAC,NAC,NAC,NAC,ultisol,NA,seasonally flooded,NA,38,South America,Af,Tropical rainforest,466,Malhi_2004_tacw,NA,Korning (1992),NA,Malhi_2004_tacw,NA,0,0,NA,NA,NA
67,"Anangu, A2",NA,NA,NA,NAC,Orellana,Ecuador,-0.53,-76.43,310,NA,25.47,NAC,NAC,3252,Dry season length 0.31 mths,NAC,NAC,NAC,NAC,ultisol,NA,terra firma,NA,38,South America,Af,Tropical rainforest,467,Malhi_2004_tacw,NA,Korning (1992),NA,Malhi_2004_tacw,NA,0,0,NA,NA,NA
68,"Anangu, A3",NA,NA,NA,NAC,Orellana,Ecuador,-0.53,-76.43,370,NA,25.17,NAC,NAC,3252,Dry season length 0.31 mths,NAC,NAC,NAC,NAC,ultisol,NA,terra firma,NA,38,South America,Af,Tropical rainforest,468,Malhi_2004_tacw,NA,Korning (1992),NA,Malhi_2004_tacw,NA,0,0,NA,NA,NA
69,Andrews 1,NA,NA,H.J. Andrews Experimental Forest,Blue River,Oregon,United States of America,44.2576,-122.2012,780,NA,NAC,NAC,NAC,NAC,NA,loam,NAC,NAC,NAC,NAC,NA,NA,NA,39,North America,Csb,Temperate mountain system,NA,Luyssaert_2007_cbob,Law_2004_dace,NA,1,Luyssaert_2007_cbob,Maria,17,1,supersite,NA,needs merge
70,Andrews 10,NA,NA,H.J. Andrews Experimental Forest,Blue River,Oregon,United States of America,44.2479,-122.2008,785,NA,NAC,NAC,NAC,NAC,NA,loam,NAC,NAC,NAC,NAC,NA,NA,NA,39,North America,Csb,Temperate mountain system,NA,DeAngelis_1981_pofe; Luyssaert_2007_cbob,Law_2004_dace,NA,1,Luyssaert_2007_cbob,Maria,17,1,supersite,NA,needs merge
71,Andrews 11,NA,NA,H.J. Andrews Experimental Forest,Blue River,Oregon,United States of America,44.2334,-122.1731,738,NA,NAC,NAC,NAC,NAC,NA,loam,NAC,NAC,NAC,NAC,NA,NA,NA,39,North America,Csb,Temperate mountain system,NA,Luyssaert_2007_cbob,Law_2004_dace,NA,1,Luyssaert_2007_cbob,Maria,17,1,supersite,NA,needs merge
72,Andrews 12,NA,NA,H.J. Andrews Experimental Forest,Blue River,Oregon,United States of America,44.2587,-122.1818,812,NA,NAC,NAC,NAC,NAC,NA,loam,NAC,NAC,NAC,NAC,NA,NA,NA,39,North America,Csb,Temperate mountain system,NA,Luyssaert_2007_cbob,Law_2004_dace,NA,1,Luyssaert_2007_cbob,Maria,17,1,supersite,NA,needs merge
73,Andrews 2,NA,NA,H.J. Andrews Experimental Forest,Blue River,Oregon,United States of America,44.2515,-122.2018,815,NA,NAC,NAC,NAC,NAC,NA,loam,NAC,NAC,NAC,NAC,NA,NA,NA,39,North America,Csb,Temperate mountain system,NA,Luyssaert_2007_cbob,Law_2004_dace,NA,1,Luyssaert_2007_cbob,Maria,17,1,supersite,NA,needs merge
74,Andrews 3,NA,NA,H.J. Andrews Experimental Forest,Blue River,Oregon,United States of America,44.2588,-122.2041,766,NA,NAC,NAC,NAC,NAC,NA,loam,NAC,NAC,NAC,NAC,NA,NA,NA,39,North America,Csb,Temperate mountain system,NA,Luyssaert_2007_cbob,Law_2004_dace,NA,1,Luyssaert_2007_cbob,Maria,17,1,supersite,NA,needs merge
75,Andrews 4,NA,NA,H.J. Andrews Experimental Forest,Blue River,Oregon,United States of America,44.2477,-122.1974,737,NA,NAC,NAC,NAC,NAC,NA,loam,NAC,NAC,NAC,NAC,NA,NA,NA,39,North America,Csb,Temperate mountain system,NA,Luyssaert_2007_cbob,Law_2004_dace,NA,1,Luyssaert_2007_cbob,Maria,17,1,supersite,NA,needs merge
76,Andrews 5,NA,NA,H.J. Andrews Experimental Forest,Blue River,Oregon,United States of America,44.2347,-122.1766,712,NA,NAC,NAC,NAC,NAC,NA,loam,NAC,NAC,NAC,NAC,NA,NA,NA,39,North America,Csb,Temperate mountain system,NA,Luyssaert_2007_cbob,Law_2004_dace,NA,1,Luyssaert_2007_cbob,Maria,17,1,supersite,NA,needs merge
77,Andrews 6,NA,NA,H.J. Andrews Experimental Forest,Blue River,Oregon,United States of America,44.2548,-122.1827,782,NA,NAC,NAC,NAC,NAC,NA,loam,NAC,NAC,NAC,NAC,NA,NA,NA,39,North America,Csb,Temperate mountain system,NA,Luyssaert_2007_cbob,Law_2004_dace,NA,1,Luyssaert_2007_cbob,Maria,17,1,supersite,NA,needs merge
78,Andrews 7,NA,NA,H.J. Andrews Experimental Forest,Blue River,Oregon,United States of America,44.2705,-122.2173,700,NA,NAC,NAC,NAC,NAC,NA,loam,NAC,NAC,NAC,NAC,NA,NA,NA,39,North America,Csb,Temperate mountain system,NA,Luyssaert_2007_cbob,Law_2004_dace,NA,1,Luyssaert_2007_cbob,Maria,17,1,supersite,NA,needs merge
79,Andrews 8,NA,NA,H.J. Andrews Experimental Forest,Blue River,Oregon,United States of America,44.2699,-122.2265,859,NA,NAC,NAC,NAC,NAC,NA,loam,NAC,NAC,NAC,NAC,NA,NA,NA,39,North America,Csb,Temperate mountain system,NA,Luyssaert_2007_cbob,Law_2004_dace,NA,1,Luyssaert_2007_cbob,Maria,17,1,supersite,NA,needs merge
80,Andrews 9,NA,NA,H.J. Andrews Experimental Forest,Blue River,Oregon,United States of America,44.2626,-122.1944,846,NA,NAC,NAC,NAC,NAC,NA,loam,NAC,NAC,NAC,NAC,NA,NA,NA,39,North America,Csb,Temperate mountain system,NA,Luyssaert_2007_cbob,Law_2004_dace,NA,1,Luyssaert_2007_cbob,Maria,17,1,supersite,NA,needs merge
81,Andrews watershed,NA,NA,H.J. Andrews Experimental Forest,Blue River,Oregon,United States of America,44.25,-122.17,531,NA,8.7,NAC,NAC,2370,NA,loam,NAC,NAC,NAC,NAC,NA,NA,NA,39,North America,Csb,Temperate mountain system,NA,Sulzmann_2005_coal,Sulzmann_2005_coal,NA,1,Luyssaert_2007_cbob,Maria,17,1,supersite,NA,needs merge
82,Andrews watershed 10,NA,NA,NA,NAC,Oregon,United States of America,44.25,-122.33,430,NA,8.5,NAC,NAC,2250,NA,loam,NAC,NAC,NAC,NAC,NA,NA,NA,39,North America,Csb,Temperate mountain system,NA,DeAngelis_1981_pofe,DeAngelis_1981_pofe,"DeAngelis et al 1981 IBP_101,",1,Luyssaert_2007_cbob,Maria,0,0,NA,NA,NA
83,"Apiau,Roraima",NA,NA,NA,NAC,Roraima,Brazil,2.57,-61.3,NAC,NA,NAC,NAC,NAC,1902,rainfall seasonality index SR (%) = 0.47,NAC,NAC,NAC,NAC,Acrisol,NA,NAC,NA,40,South America,Am,Tropical moist forest,1169,Barbosa_1996_canf; Chave_2010_rasp,NA,NA,NA,Chave_2010_rasp,NA,0,0,NA,NA,NA
84,"Appomattox Buckingham S.F., Chestnut Ridge Natural Area",NA,NA,NA,NAC,Virginia,United States of America,37.407916,-78.622173,NAC,NA,NAC,NAC,NAC,NAC,NA,NAC,NAC,NAC,NAC,NAC,NA,NA,NA,41,North America,Cfa,Subtropical humid forest,NA,McGarvey_2015_csio,NA,NA,NA,NA,Maria,0,0,NA,NA,NA
85,Araracuara,NA,NA,NA,NAC,Amazonas,Colombia,-0.63,-72.37,NAC,NA,25.5,NAC,NAC,2998,NA,NAC,NAC,NAC,NAC,NAC,NA,NAC,NA,42,South America,Af,Tropical rainforest,131,Overman_1994_eorm,NA,NA,NA,Keith_2009_rofb; Liu_2014_htpa,NA,0,0,NA,NA,NA
86,Arengou,NA,NA,NA,Baiyu,Sichuan,China,31.2,98.8,NAC,NA,5.9,NAC,NAC,555,NA,NAC,NAC,NAC,NAC,NAC,NA,NA,NA,43,Asia,Dwc,Subtropical mountain system,NA,Luo_1996_ponp,NA,Liu_2014_htpa,NA,Liu_2014_htpa,Maria,0,0,NA,NA,NA
87,Arroyo Negro,NA,NA,NA,Yucatan,Campeche,Mexico,17.883,-89.283,NAC,NA,25,NAC,NAC,1418,NA,NAC,NAC,NAC,NAC,NAC,"Regionally, soils are shallow, calcareous, and highly permeable due to organic matter content and under- lying limestone bedrock.",NAC,NA,44,North America,Aw,Tropical moist forest,338,Read_2003_robf,NA,NA,NA,NA,NA,0,0,NA,NA,NA
88,Asa,NA,NA,NA,NAC,Kronoberg,Sweden,57.13,14.75,190,NA,7.5,NAC,NAC,712,NA,NAC,NAC,NAC,NAC,NAC,NA,NA,NA,45,Europe,Cfb,Temperate continental forest,NA,Lindroth_2008_mone,NA,NA,NA,Yu_2014_hcdu,Maria,0,0,NA,NA,NA
89,Ashu Kyoto,NA,NA,NA,NAC,Kyoto,Japan,35.33,135.75,680,NA,11.3,NAC,NAC,2788,NA,clay loam,NAC,NAC,NAC,NAC,NA,NA,NA,46,Asia,Cfa,Temperate mountain system,NA,DeAngelis_1981_pofe,DeAngelis_1981_pofe,"DeAngelis et al 1981 IBP_39,ods,",1,Luyssaert_2007_cbob,Maria,0,0,NA,NA,NA
90,ASN-02_Asenanyo F.R. 2,NA,NA,NA,NAC,Ashanti,Ghana,6.56,-2.22,270,NA,25.7,NAC,NAC,1416,NA,NAC,NAC,NAC,NAC,NAC,NA,NAC,NA,47,Africa,Aw,Tropical rainforest,255,Lewis_2009_icsi,NA,NA,NA,Lewis2009; Liu_2014_htpa,NA,0,0,NA,NA,NA
91,ASN-04_Asenanyo F.R. 4,NA,NA,NA,NAC,Ashanti,Ghana,6.48,-2.17,230,NA,25.6,NAC,NAC,1434,NA,NAC,NAC,NAC,NAC,NAC,NA,NAC,NA,47,Africa,Aw,Tropical rainforest,254,Lewis_2009_icsi,NA,NA,NA,Lewis2009; Liu_2014_htpa,NA,0,0,NA,NA,NA
92,AspenFACE,NA,NA,NA,Rhinelander,Wisconsin,United States of America,45.667,-89.6167,NAC,NA,4,NAC,NAC,810,NA,sandy loam,NAC,NAC,NAC,NAC,NA,NA,NA,48,North America,Dfb,Temperate continental forest,NA,King_2004_amso; King_2005_tocn; Norby_2005_frte,NA,NA,NA,NA,NA,19,1,NA,NA,NA
93,ASU-01_Asukese F.R. 1,NA,NA,NA,NAC,Brong-Ahafo,Ghana,7.14,-2.45,285,NA,25.9,NAC,NAC,1212,NA,NAC,NAC,NAC,NAC,NAC,NA,NAC,NA,49,Africa,Aw,Tropical rainforest,256,Lewis_2009_icsi,NA,NA,NA,Lewis2009; Liu_2014_htpa,NA,0,0,NA,NA,NA
94,Atherton Gadgarra,NA,NA,NA,Athterton,Queensland,Australia,-17.3,145.72,700,NA,NAC,NAC,NAC,2100,NA,NAC,NAC,NAC,NAC,NAC,"typical krasnozem humox (0.50/0.13/0.37 sand/silt/clay, 0-30 cm)",NAC,NA,50,Australia,Cfa,Tropical rainforest,3,Stocker_2013_ntfa,NA,NA,NA,Stocker_2013_ntfa,NA,0,0,NA,NA,NA
95,Atherton Tableland,NA,NA,NA,Athterton,Queensland,Australia,-17.28,145.57,720,NA,20,14.7,20.2,1427,NA,NAC,NAC,NAC,NAC,NAC,dark red basaltic / krasnozem 0.15/0.38/0.47 sand/silt/clay (0-30 cm),NAC,NA,50,Australia,Cfa,Tropical rainforest,4,Stocker_2013_ntfa,NA,NA,NA,NA,NA,0,0,NA,NA,NA
96,Atherton Wongabel,NA,NA,NA,Athterton,Queensland,Australia,-17.32,145.5,760,NA,NAC,NAC,NAC,1560,NA,NAC,NAC,NAC,NAC,NAC,"typical krasnozem ochrept; (0.53/0.12/0.34 sand/silt/clay, 0-30 cm)",NAC,NA,50,Australia,Cwa,Tropical rainforest,2,Stocker_2013_ntfa,NA,NA,NA,Stocker_2013_ntfa,NA,0,0,NA,NA,NA
97,Aubure (Natural regeneration),NA,NA,NA,NAC,Haut-Rhin,France,48.2,7.18,1000,NA,5.4,NAC,NAC,1192,NA,loam,NAC,NAC,NAC,NAC,NA,NA,NA,51,Europe,Cfb,Temperate mountain system,NA,Luyssaert_2007_cbob; Schulze_2000_tcan,Schulze_2000_tcan,NA,1,Luyssaert_2007_cbob,Maria,0,0,NA,NA,NA
98,Aubure (Planted),NA,NA,NA,NAC,Haut-Rhin,France,48.2,7.18,1050,NA,5.4,NAC,NAC,1192,NA,loam,NAC,NAC,NAC,NAC,NA,NA,NA,51,Europe,Cfb,Temperate mountain system,NA,Luyssaert_2007_cbob; Schulze_2000_tcan,Schulze_2000_tcan,NA,1,Luyssaert_2007_cbob,Maria,0,0,NA,NA,NA
99,Austin Cary Management Forest,NA,NA,NA,NAC,Florida,United States of America,29.74,-82.21,50,NA,21.7,NAC,NAC,1330,NA,clay loam,NAC,NAC,NAC,NAC,NA,NA,NA,52,North America,Cfa,Subtropical humid forest,NA,Luyssaert_2007_cbob; Yu_2014_hcdu,NA,Ameriflux website,1,Luyssaert_2007_cbob,Maria,21,1,NA,NA,NA
100,Bago Mountain swidden cultivation fallows chronosequence,NA,NA,NA,Karen,Bago,Myanmar,18.875,95.891,350,NA,27,NAC,NAC,1900,NA,NAC,NAC,NAC,NAC,Ultisol,NA,NAC,NA,53,Asia,Aw,Tropical rainforest,385,Chan_2013_eoam,NA,NA,NA,NA,NA,22,1,0,NA,need to return to two original refs
101,"Baihe, Nanping",NA,NA,NA,Nanping,Sichuan,China,33.25,103.77,NAC,NA,4,NAC,NAC,832,NA,NAC,NAC,NAC,NAC,NAC,NA,NA,NA,54,Asia,Dwb,Subtropical mountain system,NA,Luo_1996_ponp,NA,Liu_2014_htpa,NA,Liu_2014_htpa,Maria,0,0,NA,NA,NA
102,Baisha,NA,NA,NA,NAC,Guangxi,China,21.7,109.6,NAC,NA,23.8,NAC,NAC,1581,NA,NAC,NAC,NAC,NAC,NAC,NA,NAC,NA,55,Asia,Cwa,Subtropical humid forest,404,Luo_1996_ponp,NA,NA,NA,Liu_2014_htpa,NA,0,0,NA,NA,NA
103,Baiyin'aobao,NA,NA,NA,NAC,Inner Mongol,China,43.51,117.22,NAC,NA,0.7,NAC,NAC,381,NA,NAC,NAC,NAC,NAC,NAC,NA,NA,NA,56,Asia,Dwb,Temperate steppe,NA,Luo_1996_ponp,NA,Liu_2014_htpa,NA,Liu_2014_htpa,Maria,0,0,NA,NA,NA
104,Baiyu,NA,NA,NA,NAC,Sichuan,China,31.2,98.8,NAC,NA,4.9,NAC,NAC,549,NA,NAC,NAC,NAC,NAC,NAC,NA,NA,NA,43,Asia,Dwc,Subtropical mountain system,NA,Luo_1996_ponp,NA,Liu_2014_htpa,NA,Liu_2014_htpa,Maria,0,0,NA,NA,NA
105,Bajo Calima Concession Chronosequence,NA,NA,NA,NAC,Valle del Cauca,Colombia,3.916667,-77,100,NA,27.3,21.4,30.3,7000,transitional tropical wet - rain forest,clay,NAC,NAC,NAC,Entisol,NA,NAC,NA,57,South America,Af,Tropical rainforest,1400,Faber-Langendoen_1992_ecor,NA,NA,NA,Bonner_2013_amgc,NA,0,0,NA,NA,NA
106,Balikun,NA,NA,NA,NAC,Xinjiang,China,43.8,93,NAC,NA,-0.7,NAC,NAC,684,NA,NAC,NAC,NAC,NAC,NAC,NA,NA,NA,58,Asia,BWk,Temperate mountain system,NA,Luo_1996_ponp,NA,Liu_2014_htpa,NA,Liu_2014_htpa,Maria,0,0,NA,NA,NA
107,Balmoral,NA,NA,NA,NAC,Canterbury,New Zealand,-42.87,172.75,198,NA,9.77,NAC,NAC,652,NA,clay loam,NAC,NAC,NAC,NAC,NA,NA,NA,59,Oceania,Cfb,Temperate oceanic forest,NA,Arneth_1998_nepn; Arneth_1999_aoac,Arneth_1998_nepn; Arneth_1999_aoac,NA,1,Luyssaert_2007_cbob,Maria,0,0,NA,NA,NA
108,BAN-01b_Banco IBP Plateau,NA,NA,NA,NAC,Lagunes,Cote D'Ivoire,5.53,-4.03,50,NA,26.2,NAC,NAC,1683,NA,NAC,NAC,NAC,NAC,NAC,NA,NAC,NA,60,Africa,Aw,Tropical rainforest,242,Lewis_2009_icsi,NA,NA,NA,Lewis2009; Liu_2014_htpa,NA,0,0,NA,NA,NA
109,BAN-02b_Banco IBP Valley,NA,NA,NA,NAC,Lagunes,Cote D'Ivoire,5.53,-4.03,50,NA,26.2,NAC,NAC,1683,NA,NAC,NAC,NAC,NAC,NAC,NA,NAC,NA,60,Africa,Aw,Tropical rainforest,243,Lewis_2009_icsi,NA,NA,NA,Lewis2009; Liu_2014_htpa,NA,0,0,NA,NA,NA
110,Banco plateau,NA,NA,NA,NAC,Lagunes,Cote D'Ivoire,5.38,-4.03,100,elevation approx.- probably 50-100 m,26.2,NAC,NAC,2095,NA,NAC,NAC,NAC,NAC,NAC,Very sandy,NAC,NA,60,Africa,Aw,Tropical rainforest,240,Bernhard-Reversat_1978_safo; Clark_2013_ntfc; DeAngelis_1981_pofe,NA,Huttel 1975. Bernhard-Reversat et al. 1972; 1978,NA,NA,NA,25,1,1,NA,"unique from Banco valley, but probably not from BAN-01b_Banco IBP Plateau"
111,Banco Valley,NA,NA,NA,NAC,Lagunes,Cote D'Ivoire,5.38,-4.03,50,elevation approx.- probably 50-100 m,26.2,NAC,NAC,NAC,NA,NAC,NAC,NAC,NAC,NAC,Very sandy,NAC,NA,60,Africa,Aw,Tropical rainforest,241,Bernhard-Reversat_1978_safo; Clark_2013_ntfc,NA,Huttel 1975. Bernhard-Reversat et al. 1972; 1978,NA,NA,NA,25,1,1,NA,unique from Banco plateau but probably not from BAN-02b_Banco IBP Valley
112,BangorFACE,NA,NA,NA,Bangor,Gwynedd,United Kingdom,53.233,-4.0167,15,NA,11,NAC,NAC,1034,NA,loam,NAC,NAC,NAC,NAC,NA,NA,NA,61,Europe,Cfb,Temperate oceanic forest,NA,Hoosbeek_2011_face; Smith_2012_tsdi,NA,NA,NA,NA,NA,0,0,NA,NA,NA
113,Bannadpare,NA,NA,NA,NAC,Karnataka,India,12.08,75.7,200,NA,27,NAC,NAC,5310,NA,NAC,NAC,NAC,NAC,NAC,Oxisol,NAC,Rain forest,62,Asia,Am,Tropical rainforest,326,Clark_2013_ntfc; Olson_2013_nmna; Rai_1986_esof,NA,"Rai and Proctor 1986a,b",NA,NA,NA,0,0,NA,NA,NA
114,Baotianman Nature Reserve,NA,NA,NA,Neixiang,Henan,China,33.483333,111.958333,1320,NA,15.2,NAC,NAC,900,NA,NAC,NAC,NAC,NAC,NAC,NA,NA,NA,63,Asia,Cwa,Subtropical mountain system,NA,Liu_1998_banp; Liu_2001_soba,NA,NA,NA,Lin_2012_tvia,Maria,26,1,NA,NA,NA
115,Baozuo 1,NA,NA,NA,Ruo'ergai,Sichuan,China,33.47,103.46,NAC,NA,2.9,NAC,NAC,788,NA,NAC,NAC,NAC,NAC,NAC,NA,NA,NA,54,Asia,Dwb,Temperate mountain system,NA,Luo_1996_ponp,NA,Liu_2014_htpa,NA,Liu_2014_htpa,Maria,0,0,NA,NA,NA
116,Baozuo 10,NA,NA,NA,Ruo'ergai,Sichuan,China,33.48,103.54,NAC,NA,2.9,NAC,NAC,797,NA,NAC,NAC,NAC,NAC,NAC,NA,NA,NA,54,Asia,Dwb,Temperate mountain system,NA,Luo_1996_ponp,NA,Liu_2014_htpa,NA,Liu_2014_htpa,Maria,0,0,NA,NA,NA
117,Baozuo 11,NA,NA,NA,Ruo'ergai,Sichuan,China,33.53,103.66,NAC,NA,3.5,NAC,NAC,809,NA,NAC,NAC,NAC,NAC,NAC,NA,NA,NA,54,Asia,Dwb,Temperate mountain system,NA,Luo_1996_ponp,NA,Liu_2014_htpa,NA,Liu_2014_htpa,Maria,0,0,NA,NA,NA
118,Baozuo 12,NA,NA,NA,Ruo'ergai,Sichuan,China,33.57,103.32,NAC,NA,2.6,NAC,NAC,769,NA,NAC,NAC,NAC,NAC,NAC,NA,NA,NA,54,Asia,Dwb,Temperate mountain system,NA,Luo_1996_ponp,NA,Liu_2014_htpa,NA,Liu_2014_htpa,Maria,0,0,NA,NA,NA
119,Baozuo 13,NA,NA,NA,Ruo'ergai,Sichuan,China,33.45,103.5,NAC,NA,2.9,NAC,NAC,794,NA,NAC,NAC,NAC,NAC,NAC,NA,NA,NA,54,Asia,Dwb,Temperate mountain system,NA,Luo_1996_ponp,NA,Liu_2014_htpa,NA,Liu_2014_htpa,Maria,0,0,NA,NA,NA
120,Baozuo 2,NA,NA,NA,Ruo'ergai,Sichuan,China,33.35,103.41,NAC,NA,2.7,NAC,NAC,788,NA,NAC,NAC,NAC,NAC,NAC,NA,NA,NA,54,Asia,Dwb,Temperate mountain system,NA,Luo_1996_ponp,NA,Liu_2014_htpa,NA,Liu_2014_htpa,Maria,0,0,NA,NA,NA
121,Baozuo 3,NA,NA,NA,Ruo'ergai,Sichuan,China,33.32,103.61,NAC,NA,3.5,NAC,NAC,811,NA,NAC,NAC,NAC,NAC,NAC,NA,NA,NA,54,Asia,Dwb,Subtropical mountain system,NA,Luo_1996_ponp,NA,Liu_2014_htpa,NA,Liu_2014_htpa,Maria,0,0,NA,NA,NA
122,Baozuo 4,NA,NA,NA,Ruo'ergai,Sichuan,China,33.37,103.36,NAC,NA,2.7,NAC,NAC,781,NA,NAC,NAC,NAC,NAC,NAC,NA,NA,NA,54,Asia,Dwb,Temperate mountain system,NA,Luo_1996_ponp,NA,Liu_2014_htpa,NA,Liu_2014_htpa,Maria,0,0,NA,NA,NA
123,Baozuo 5,NA,NA,NA,Ruo'ergai,Sichuan,China,33.43,103.49,NAC,NA,2.9,NAC,NAC,794,NA,NAC,NAC,NAC,NAC,NAC,NA,NA,NA,54,Asia,Dwb,Temperate mountain system,NA,Luo_1996_ponp,NA,Liu_2014_htpa,NA,Liu_2014_htpa,Maria,0,0,NA,NA,NA
124,Baozuo 6,NA,NA,NA,Ruo'ergai,Sichuan,China,33.4,103.37,NAC,NA,2.7,NAC,NAC,782,NA,NAC,NAC,NAC,NAC,NAC,NA,NA,NA,54,Asia,Dwb,Temperate mountain system,NA,Luo_1996_ponp,NA,Liu_2014_htpa,NA,Liu_2014_htpa,Maria,0,0,NA,NA,NA
125,Baozuo 7,NA,NA,NA,Ruo'ergai,Sichuan,China,33.38,103.5,NAC,NA,2.9,NAC,NAC,797,NA,NAC,NAC,NAC,NAC,NAC,NA,NA,NA,54,Asia,Dwb,Temperate mountain system,NA,Luo_1996_ponp,NA,Liu_2014_htpa,NA,Liu_2014_htpa,Maria,0,0,NA,NA,NA
126,Baozuo 8,NA,NA,NA,Ruo'ergai,Sichuan,China,33.33,103.47,NAC,NA,3.3,NAC,NAC,795,NA,NAC,NAC,NAC,NAC,NAC,NA,NA,NA,54,Asia,Dwb,Temperate mountain system,NA,Luo_1996_ponp,NA,Liu_2014_htpa,NA,Liu_2014_htpa,Maria,0,0,NA,NA,NA
127,Baozuo 9,NA,NA,NA,Ruo'ergai,Sichuan,China,33.62,103.39,NAC,NA,2.6,NAC,NAC,776,NA,NAC,NAC,NAC,NAC,NAC,NA,NA,NA,54,Asia,Dwb,Temperate mountain system,NA,Luo_1996_ponp,NA,Liu_2014_htpa,NA,Liu_2014_htpa,Maria,0,0,NA,NA,NA
128,"Baozuo Cupressus, Sabina",NA,NA,NA,Ruo'ergai,Sichuan,China,33.45,103.39,NAC,NA,2.7,NAC,NAC,782,NA,NAC,NAC,NAC,NAC,NAC,NA,NA,NA,54,Asia,Dwb,Temperate mountain system,NA,Luo_1996_ponp,NA,Liu_2014_htpa,NA,Liu_2014_htpa,Maria,0,0,NA,NA,NA
129,"Barama, NW Guyana",NA,NA,NA,NAC,Barima-Waini,Guyana,7.7,-59.943,NAC,NA,NAC,NAC,NAC,2599,NA,NAC,NAC,NAC,NAC,NAC,NA,NAC,NA,64,South America,Af,Tropical rainforest,1357,Poorter_2015_decs,NA,NA,NA,NA,NA,0,0,NA,NA,NA
130,Barro Colorado Island chronosequence,NA,NA,Barro Colorado Island (BCI),NA,Colon,Panama,9.15,-79.833,NAC,NA,26,NAC,NAC,2600,NA,NAC,NAC,NAC,NAC,NAC,NA,NAC,NA,7,North America,Am,Tropical moist forest,277,Mascaro_2012_soac,NA,NA,NA,NA,NA,31,1;2;3,NAC,NA,some plots may fall within Barro Colorado Island CTFS-ForestGEO plot
131,Barro Colorado Island CTFS-ForestGEO plot,CTFS-ForestGEO,BCI,Barro Colorado Island (BCI),NA,Colon,Panama,9.1543,-79.8461,140,"lowland, on a 1500-ha island in Gatun Lake; elevation is midpoint between min and max",27.4,NAC,NAC,2167,Dry season length 3.54 mths; Mean maximum dry season moisture deficit (mm) =514,NAC,NAC,NAC,NAC,oxisol,parent rock beneath the plateau is anandesite flow; soils under most of the plot are well-weathered kaolinitic Oxisols with low cation exchange capacity; Soil classification done by Turner. there has been extensive classification work done on BCI in general (Baillie et al. 2007 _ online).,terra firma,NA,7,North America,Am,Tropical moist forest,470,Chave_2003_satv; Chave_2008_aepa; Foster_1982_fobc; Johnson_2018_csss; Lutz_2018_giol; Malhi_2011_taoe; Meakem_2017_rots; Poorter_2015_decs,Meakem_2017_rots;Anderson-Teixeira_2015_cawn,"additional references: Foster 1982, Anderson-Teixeira_2015_cawn and references therein.  Updated info at: https://github.com/forestgeo/Site-Data/blob/master/ForestGEO_site_data.csv.",NA,NA,Kristina Anderson-Teixeira,31,1;2;3,NAC,NA,NA
132,Bartlett,NA,NA,NA,NAC,New Hampshire,United States of America,44.06,-71.29,272,NA,6.93,NAC,NAC,1270,NA,loam,NAC,NAC,NAC,NAC,NA,NA,NA,65,North America,Dfb,Temperate mountain system,NA,Luyssaert_2007_cbob; Ollinger_2005_nppa; Yanai_2006_tvah,NA,Ameriflux,1,Luyssaert_2007_cbob,Kristina Anderson-Teixeira,32,1,NA,NA,NA
133,Battle Ax 1,NA,NA,NA,NAC,Oregon,United States of America,44.7782,-122.1476,1284,NA,NAC,NAC,NAC,NAC,NA,loam,NAC,NAC,NAC,NAC,NA,NA,NA,66,North America,Csb,Temperate mountain system,NA,Luyssaert_2007_cbob,NA,Sun et al 2004,1,Luyssaert_2007_cbob,Kristina Anderson-Teixeira,0,0,NA,NA,NA
134,Battle Ax 2,NA,NA,NA,NAC,Oregon,United States of America,44.8094,-122.2324,1007,NA,NAC,NAC,NAC,NAC,NA,loam,NAC,NAC,NAC,NAC,NA,NA,NA,66,North America,Csb,Temperate mountain system,NA,Luyssaert_2007_cbob,NA,Sun et al 2004,1,Luyssaert_2007_cbob,Kristina Anderson-Teixeira,0,0,NA,NA,NA
135,Battle Ax 3,NA,NA,NA,NAC,Oregon,United States of America,44.8094,-122.2324,900,NA,NAC,NAC,NAC,NAC,NA,loam,NAC,NAC,NAC,NAC,NA,NA,NA,66,North America,Csb,Temperate mountain system,NA,Luyssaert_2007_cbob,NA,Sun et al 2004,1,Luyssaert_2007_cbob,Maria,0,0,NA,NA,NA
136,Battle Ax 4,NA,NA,NA,NAC,Oregon,United States of America,44.8285,-122.2429,745,NA,NAC,NAC,NAC,NAC,NA,loam,NAC,NAC,NAC,NAC,NA,NA,NA,66,North America,Csb,Temperate mountain system,NA,Luyssaert_2007_cbob,NA,Sun et al 2004,1,Luyssaert_2007_cbob,Maria,0,0,NA,NA,NA
137,Battle Ax 5,NA,NA,NA,NAC,Oregon,United States of America,44.836,-122.2246,1027,NA,NAC,NAC,NAC,NAC,NA,loam,NAC,NAC,NAC,NAC,NA,NA,NA,66,North America,Csb,Temperate mountain system,NA,Luyssaert_2007_cbob,NA,Sun et al 2004,1,Luyssaert_2007_cbob,Maria,0,0,NA,NA,NA
138,Battle Ax 6,NA,NA,NA,NAC,Oregon,United States of America,44.8386,-122.2342,987,NA,NAC,NAC,NAC,NAC,NA,loam,NAC,NAC,NAC,NAC,NA,NA,NA,66,North America,Csb,Temperate mountain system,NA,Luyssaert_2007_cbob,NA,Sun et al 2004,1,Luyssaert_2007_cbob,Maria,0,0,NA,NA,NA
139,Baxi 1,NA,NA,NA,Ruo'ergai,Sichuan,China,33.38,103.32,NAC,NA,2.7,NAC,NAC,776,NA,NAC,NAC,NAC,NAC,NAC,NA,NA,NA,54,Asia,Dwb,Temperate mountain system,NA,Luo_1996_ponp,NA,Liu_2014_htpa,NA,Liu_2014_htpa,Maria,0,0,NA,NA,NA
140,Baxi 2,NA,NA,NA,Ruo'ergai,Sichuan,China,33.53,103.34,NAC,NA,2.6,NAC,NAC,772,NA,NAC,NAC,NAC,NAC,NAC,NA,NA,NA,54,Asia,Dwb,Temperate mountain system,NA,Luo_1996_ponp,NA,Liu_2014_htpa,NA,Liu_2014_htpa,Maria,0,0,NA,NA,NA
141,Baxi 3,NA,NA,NA,Ruo'ergai,Sichuan,China,33.55,103.3,NAC,NA,2.6,NAC,NAC,767,NA,NAC,NAC,NAC,NAC,NAC,NA,NA,NA,54,Asia,Dwb,Temperate mountain system,NA,Luo_1996_ponp,NA,Liu_2014_htpa,NA,Liu_2014_htpa,Maria,0,0,NA,NA,NA
142,Bayreuth/Weiden Brunnen,NA,NA,NA,NAC,Bayern,Germany,50.15,11.87,775,NA,5.84,NAC,NAC,1037.17,NA,clay loam,NAC,NAC,NAC,NAC,NA,NA,NA,67,Europe,Cfb,Temperate oceanic forest,NA,Buchmann_2000_baaf; CarboEurope-IP_2006_cd; Law_2002_ecoc; Mund_2002_gacs; Ruppert_2006_igsf; Valentini_2000_ratm,NA,CD Carbodata,1,Luyssaert_2007_cbob,Maria,34,1;2;3;4,NA,NA,NA
143,BCI Putz & Milton,NA,NA,Barro Colorado Island (BCI),NAC,Colon,Panama,9.17,-79.85,100,NA,26.26,NAC,NAC,2912,Dry season length 3.54 mths,NAC,NAC,NAC,NAC,ultisol,NA,terra firma,NA,7,North America,Am,Tropical moist forest,469,Leigh_1999_tfea; Foster_1982_fobc; Taylor_2017_tari,NA,NA,NA,Malhi_2004_tacw,NA,31,1;2;3,NAC,NA,may fall within Barro Colorado Island CTFS-ForestGEO plot
144,BCI.poachers1,NA,NA,?Barro Colorado Island (BCI),NAC,Colon,Panama,9.28,-79.8,NAC,"coordinates suspect. BCI name and source (Leigh_1999_tfea) would imply that site should be on Barro Colorado Island, but coordinates are off BCI. Needs to be checked against original source.",NAC,NAC,NAC,2617,rainfall seasonality index SR (%) = 0.34,NAC,NAC,NAC,NAC,Acrisol,NA,NAC,NA,7,North America,Am,Tropical rainforest,1170,Leigh_1999_tfea,NA,NA,NA,Chave_2010_rasp,NA,0,0,NAC,NA,coordinates may be off. Appears to be BCI
145,BCI.poachers2,NA,NA,?Barro Colorado Island (BCI),NAC,Colon,Panama,9.28,-79.8,NAC,"coordinates suspect. BCI name and source (Leigh_1999_tfea) would imply that site should be on Barro Colorado Island, but coordinates are off BCI. Needs to be checked against original source.",NAC,NAC,NAC,2617,rainfall seasonality index SR (%) = 0.34,NAC,NAC,NAC,NAC,Acrisol,NA,NAC,NA,7,North America,Am,Tropical rainforest,1171,Leigh_1999_tfea,NA,NA,NA,Chave_2010_rasp,NA,0,0,NAC,NA,coordinates may be off. Appears to be BCI
146,BCI.poachers3,NA,NA,?Barro Colorado Island (BCI),NAC,Colon,Panama,9.28,-79.8,NAC,"coordinates suspect. BCI name and source (Leigh_1999_tfea) would imply that site should be on Barro Colorado Island, but coordinates are off BCI. Needs to be checked against original source.",NAC,NAC,NAC,2617,rainfall seasonality index SR (%) = 0.34,NAC,NAC,NAC,NAC,Acrisol,NA,NAC,NA,7,North America,Am,Tropical rainforest,1172,Leigh_1999_tfea,NA,NA,NA,Chave_2010_rasp,NA,0,0,NAC,NA,coordinates may be off. Appears to be BCI
147,BCI.poachers4,NA,NA,?Barro Colorado Island (BCI),NAC,Colon,Panama,9.28,-79.8,NAC,"coordinates suspect. BCI name and source (Leigh_1999_tfea) would imply that site should be on Barro Colorado Island, but coordinates are off BCI. Needs to be checked against original source.",NAC,NAC,NAC,2617,rainfall seasonality index SR (%) = 0.34,NAC,NAC,NAC,NAC,Acrisol,NA,NAC,NA,7,North America,Am,Tropical rainforest,1173,Leigh_1999_tfea,NA,NA,NA,Chave_2010_rasp,NA,0,0,NAC,NA,coordinates may be off. Appears to be BCI
148,BDFFP FASTIO,NA,NA,Biological Dynamics of Forest Fragments Project (BDFFP),Manaus,Amazonas,Brazil,-2.333333333,-60,NAC,coordinates are approximate. Better location could be extracted from map in Lucas (1998),NAC,NAC,NAC,2600,NA,NAC,NAC,NAC,NAC,Latosol,yellow latsiols,NAC,NA,68,South America,Af,Tropical rainforest,75,Lucas_1998_adcf,Laurence_2009_lvia,NA,NA,Anderson_2006_toba,NA,36,1,supersite,NA,NA
149,BDFFP Fazenda Agroman,NA,NA,Biological Dynamics of Forest Fragments Project (BDFFP),Manaus,Amazonas,Brazil,-2.333333333,-60,NAC,coordinates are approximate. Better location could be extracted from map in Lucas (1998),NAC,NAC,NAC,2600,NA,NAC,NAC,NAC,NAC,Latosol,yellow latsiols,NAC,NA,68,South America,Af,Tropical rainforest,80,Lucas_1998_adcf; Lucas_2002_froa,Laurence_2009_lvia,NA,NA,NA,NA,36,2,supersite,NA,NA
150,BDFFP Fazenda Cabo Frio,NA,NA,Biological Dynamics of Forest Fragments Project (BDFFP),Manaus,Amazonas,Brazil,-2.4,-60,100,NA,26.75,NAC,NAC,2305,Dry season length 3.05 mths,NAC,NAC,NAC,NAC,Ultisol,NA,terra firma,NA,68,South America,Af,Tropical rainforest,101,Baker_2004_ibia; Clark_2001_nppi; Clark_2013_ntfc; Malhi_2004_tacw,Malhi_2004_tacw,"Sizer 1992; Chambers, Pers. commun",NA,NA,NA,0,0,NA,NA,NA
151,BDFFP Fazenda Dimona,NA,NA,Biological Dynamics of Forest Fragments Project (BDFFP),Manaus,Amazonas,Brazil,-2.33333,-60.083333,100,NA,26.75,NAC,NAC,2305,Dry season length 3.05 mths; rainfall seasonality index SR (%) = 0.49,clay,NAC,NAC,NAC,Ultisol/older oxisol/ Ferralsol,NA,terra firma,NA,68,South America,Af,Tropical rainforest,99,Baker_2004_ibia; Chave_2010_rasp; Clark_2001_nppi; Clark_2013_ntfc; Lucas_2002_froa; Malhi_2004_tacw; Malhi_2011_taoe; Vieira_2004_fsac,Clark_2001_nppi; Malhi_2004_tacw,"Chambers, Pers. Commun; ttp://pdbff.inpa.gov.br/area3p.htm#",NA,NA,NA,37,1,supersite,NA,NA
152,BDFFP Fazenda Esteio,NA,NA,Biological Dynamics of Forest Fragments Project (BDFFP),Manaus,Amazonas,Brazil,-2.41667,-59.76667,NAC,coordinates are approximate. Better location could be extracted from map in Lucas (1998),NAC,NAC,NAC,2600,NA,NAC,NAC,NAC,NAC,Latosol,yellow latsiols,NAC,NA,68,South America,Af,Tropical rainforest,78,Lucas_1998_adcf; Lucas_2002_froa,Laurence_2009_lvia,NA,NA,NA,NA,38,1,NAC,NA,needs review
153,BDFFP Fazenda Gaviao,NA,NA,Biological Dynamics of Forest Fragments Project (BDFFP),Manaus,Amazonas,Brazil,-2.4,-59.9,100,NA,26.7,NAC,NAC,2233.5,Dry season length 3.05 mths,NAC,NAC,NAC,NAC,Ultisol,NA,terra firma,NA,68,South America,Af,Tropical rainforest,102,Baker_2004_ibia; Clark_2001_nppi; Clark_2013_ntfc; Malhi_2004_tacw,Malhi_2004_tacw,"Chambers, Pers. commun",NA,NA,NA,39,1;2,supersite,NA,NA
154,BDFFP Fazenda Maringa,NA,NA,Biological Dynamics of Forest Fragments Project (BDFFP),Manaus,Amazonas,Brazil,-2.333333333,-60,NAC,coordinates are approximate. Better location could be extracted from map in Lucas (1998),NAC,NAC,NAC,2600,NA,NAC,NAC,NAC,NAC,Latosol,yellow latsiols,NAC,NA,68,South America,Af,Tropical rainforest,76,Lucas_1998_adcf; Lucas_2002_froa,Laurence_2009_lvia,NA,NA,NA,NA,36,3,supersite,NA,NA
155,BDFFP Fazenda Porto Alegre,NA,NA,Biological Dynamics of Forest Fragments Project (BDFFP),Manaus,Amazonas,Brazil,-2.348,-60,NAC,coordinates are approximate. Better location could be extracted from map in Lucas (1998),NAC,NAC,NAC,2524,NA,NAC,NAC,NAC,NAC,Latosol,yellow latsiols,terra firma,NA,68,South America,Af,Tropical rainforest,77,Lucas_1998_adcf; Lucas_2002_froa,Laurence_2009_lvia,NA,NA,NA,NA,36,4,supersite,NA,NA
156,BDFFP Fazenda Porto Alegre 3304,NA,NA,Biological Dynamics of Forest Fragments Project (BDFFP),Manaus,Amazonas,Brazil,-2.348,-60,90,NA,27.2,NAC,NAC,1771,Dry season length 3.05 mths,NAC,NAC,NAC,NAC,Latosol,NA,terra firma,NA,68,South America,Af,Tropical rainforest,86,Baker_2004_ibia; Clark_2001_nppi; Clark_2013_ntfc; Malhi_2004_tacw,Klinge_1975_basi,"additional refs: Klinge 1973,1976,1978; Klinge & Rodrigues 1968",NA,NA,NA,36,1;2;3;4;5,supersite,NA,NA
157,BDFFP Florestal,NA,NA,Biological Dynamics of Forest Fragments Project (BDFFP),Manaus,Amazonas,Brazil,-2.4,-59.9,100,NA,26.8,NAC,NAC,2305,Dry season length 3.05 mths,NAC,NAC,NAC,NAC,older oxisol,NA,terra firma,NA,68,South America,Af,Tropical rainforest,104,Baker_2004_ibia; Malhi_2004_tacw,Malhi_2004_tacw,NA,NA,NA,NA,39,1;2,supersite,NA,NA
158,BDFFP km 67,NA,NA,Biological Dynamics of Forest Fragments Project (BDFFP),Manaus,Amazonas,Brazil,-2.333333333,-60,NAC,coordinates are approximate. Better location could be extracted from map in Lucas (1998),NAC,NAC,NAC,2600,NA,NAC,NAC,NAC,NAC,Latosol,yellow latsiols,NAC,NA,68,South America,Af,Tropical rainforest,79,Lucas_1998_adcf; Lucas_2002_froa,Laurence_2009_lvia,NA,NA,NA,NA,36,5,supersite,NA,NA
159,BDFFP Reserve,NA,NA,Biological Dynamics of Forest Fragments Project (BDFFP),Manaus,Amazonas,Brazil,-2.5,-60,NAC,NA,NAC,NAC,NAC,2470,rainfall seasonality index SR (%) = 0.32,NAC,NAC,NAC,NAC,Ferralsol,NA,NAC,NA,68,South America,Af,Tropical rainforest,1174,Chave_2010_rasp; Malhi_2004_tacw; Vasconcelos_2004_lpal; Vieira_2004_fsac,NA,NA,NA,Chave_2010_rasp,NA,40,1,NAC,NA,needs review
160,Bebedero,NA,NA,NA,NAC,Guanacaste,Costa Rica,10.8883,-85.6,280,NA,25.9,NAC,NAC,1613,NA,NAC,NAC,NAC,NAC,Entisol,NA,NAC,NA,69,North America,Aw,Tropical dry forest,1261,Cifuentes-Jara_2008_abae,NA,NA,NA,Bonner_2013_amgc,NA,41,1,1,NA,NA
161,Belgium,NA,NA,NA,NAC,Antwerp,Belgium,51.17,5,NI,NA,8.6,NAC,NAC,850,NA,loam,NAC,NAC,NAC,NAC,NA,NA,NA,70,Europe,Cfb,Temperate oceanic forest,NA,Esser_1997_weab,Esser_1997_weab,"Esser et al 1997 obs_1043,",1,Luyssaert_2007_cbob,Maria,0,0,NA,NA,NA
162,Belt Woods,NA,NA,NA,NAC,Maryland,United States of America,38.906743,-76.7604,NAC,NA,NAC,NAC,NAC,NAC,NA,NAC,NAC,NAC,NAC,NAC,NA,NA,NA,71,North America,Cfa,Subtropical humid forest,NA,McGarvey_2015_csio,NA,NA,NA,NA,Maria,0,0,NA,NA,NA
163,Bhabar Shisham plantation chronosequence,NA,NA,NA,NAC,Nainital,India,29.17,79.36,NAC,NA,23.3333,4.5,25.4,1415,NA,sandy loam,NAC,NAC,NAC,NAC,The soil is coarse textured and nutrient poor with low water table.,NA,NA,72,Asia,Cwa,Tropical moist forest,NA,Lodhiyal_2003_banp,NA,NA,NA,Anderson_2006_toba,NA,0,0,NA,NA,NA
164,Bianba,NA,NA,NA,Changdu,Tibet,China,30.9,94.7,NAC,NA,1,NAC,NAC,527,NA,NAC,NAC,NAC,NAC,NAC,NA,NA,NA,73,Asia,ET,Subtropical mountain system,NA,Luo_1996_ponp,NA,Liu_2014_htpa,NA,Liu_2014_htpa,Maria,0,0,NA,NA,NA
165,Big Butte Springs 1,NA,NA,NA,NAC,Oregon,United States of America,42.5853,-122.4062,1026,NA,NAC,NAC,NAC,NAC,NA,clay loam,NAC,NAC,NAC,NAC,NA,NA,NA,74,North America,Csb,Temperate mountain system,NA,Luyssaert_2007_cbob,NA,Sun et al 2004,1,Luyssaert_2007_cbob,Maria,0,0,NA,NA,NA
166,Big Butte Springs 2,NA,NA,NA,NAC,Oregon,United States of America,42.586,-122.4478,931,NA,NAC,NAC,NAC,NAC,NA,clay loam,NAC,NAC,NAC,NAC,NA,NA,NA,74,North America,Csb,Temperate mountain system,NA,Luyssaert_2007_cbob,NA,Sun et al 2004,1,Luyssaert_2007_cbob,Maria,0,0,NA,NA,NA
167,Big Butte Springs 3,NA,NA,NA,NAC,Oregon,United States of America,42.5601,-122.4966,834,NA,NAC,NAC,NAC,NAC,NA,clay loam,NAC,NAC,NAC,NAC,NA,NA,NA,74,North America,Csb,Temperate mountain system,NA,Luyssaert_2007_cbob,NA,Sun et al 2004,1,Luyssaert_2007_cbob,Maria,0,0,NA,NA,NA
168,Big Butte Springs 4,NA,NA,NA,NAC,Oregon,United States of America,42.6231,-122.4367,1024,NA,NAC,NAC,NAC,NAC,NA,clay loam,NAC,NAC,NAC,NAC,NA,NA,NA,74,North America,Csb,Temperate mountain system,NA,Luyssaert_2007_cbob,NA,Sun et al 2004,1,Luyssaert_2007_cbob,Maria,0,0,NA,NA,NA
169,Big Butte Springs 5,NA,NA,NA,NAC,Oregon,United States of America,42.5791,-122.4414,938,NA,NAC,NAC,NAC,NAC,NA,clay loam,NAC,NAC,NAC,NAC,NA,NA,NA,74,North America,Csb,Temperate mountain system,NA,Luyssaert_2007_cbob,NA,Sun et al 2004,1,Luyssaert_2007_cbob,Maria,0,0,NA,NA,NA
170,Big Butte Springs 6,NA,NA,NA,NAC,Oregon,United States of America,42.6025,-122.4755,969,NA,NAC,NAC,NAC,NAC,NA,clay loam,NAC,NAC,NAC,NAC,NA,NA,NA,74,North America,Csb,Temperate mountain system,NA,Luyssaert_2007_cbob,NA,Sun et al 2004,1,Luyssaert_2007_cbob,Maria,0,0,NA,NA,NA
171,Biliuti 1,NA,NA,NA,Bu'erjin,Xinjiang,China,47.7,86.9,NAC,NA,-2.1,NAC,NAC,672,NA,NAC,NAC,NAC,NAC,NAC,NA,NA,NA,75,Asia,BSk,Temperate desert,NA,Luo_1996_ponp,NA,Liu_2014_htpa,NA,Liu_2014_htpa,Maria,0,0,NA,NA,NA
172,Biliuti 2,NA,NA,NA,Bu'erjin,Xinjiang,China,48,86.9,NAC,NA,-3.5,NAC,NAC,863,NA,NAC,NAC,NAC,NAC,NAC,NA,NA,NA,76,Asia,BSk,Temperate desert,NA,Luo_1996_ponp,NA,Liu_2014_htpa,NA,Liu_2014_htpa,Maria,0,0,NA,NA,NA
173,Bilos,NA,NA,NA,NAC,Gironde,France,44.493889,-0.955944,NI,NA,12.8,NAC,NAC,930,NA,sandy loam,NAC,NAC,NAC,NAC,NA,NA,NA,77,Europe,Cfb,Temperate oceanic forest,NA,Hibbard_2005_aaos; Kowalski_2003_tacb; Kowalski_2004_pcoc,Kowalski_2003_tacb; Kowalski_2004_pcoc,NA,1,Luyssaert_2007_cbob,Maria,0,0,NA,NA,NA
174,Bilos Clear,NA,NA,NA,NAC,Lot-et-Garonne,France,44.495278,0.9525,NI,NA,12.8,NAC,NAC,930,NA,clay loam,NAC,NAC,NAC,NAC,NA,NA,NA,78,Europe,Cfb,Temperate oceanic forest,NA,Kowalski_2003_tacb; Kowalski_2004_pcoc; Luyssaert_2007_cbob,Kowalski_2003_tacb; Kowalski_2004_pcoc,NA,1,Luyssaert_2007_cbob,Maria,0,0,NA,NA,NA
175,Bily Kriz Forest,FluxNet,NA,NA,NAC,Moravskoslezsky Kraj,Czech Republic,49.5,18.54,908,NA,7.87,NAC,NAC,1244,NA,clay loam,NAC,NAC,NAC,NAC,NA,NA,NA,79,Europe,Dfb,Temperate mountain system,NA,CarboEurope-IP_2006_cd; FLUXNET2015_2015_fcb,CarboEurope-IP_2006_cd,NA,1,Luyssaert_2007_cbob,Maria,0,0,NA,NA,NA
176,Biology of Forest Growth experimental plantation in Pierces Creek Forest,NA,NA,NA,Canberra,Australian Capital Territory,Australia,-35.35,148.933,630,NA,13.5,NAC,NAC,791,NA,clay loam,NAC,NAC,NAC,NAC,NA,NA,NA,80,Australia,Cfb,Temperate mountain system,NA,Ryan_1996_ffwa,Ryan_1996_ffwa,NA,1,Luyssaert_2007_cbob,Maria,0,0,NA,NA,NA
177,Bionte (Luizao),NA,NA,NA,NAC,Amazonas,Brazil,-2.63,-60.17,73,NA,27.08,NAC,NAC,2272,NA,NAC,NAC,NAC,NAC,NAC,NA,NAC,NA,68,South America,Af,Tropical rainforest,1377,Malhi_2011_taoe,NA,Luizao 1989 [69],NA,Malhi_2011_taoe,NA,46,1,NAC,NA,NA
178,Bionte 1,NA,NA,NA,Manaus,Amazonas,Brazil,-2.63,-60.17,73,NA,27.1,NAC,NAC,2381,Dry season length 3 mths,NAC,NAC,NAC,NAC,older oxisol,NA,terra firma,NA,68,South America,Af,Tropical rainforest,105,Baker_2004_ibia; Chambers_2000_dacc; Malhi_2004_tacw,NA,NA,NA,NA,NA,46,1;2,NAC,NA,NA
179,Bionte 2,NA,NA,NA,Manaus,Amazonas,Brazil,-2.63,-60.17,73,NA,27.1,NAC,NAC,2381,Dry season length 3 mths,NAC,NAC,NAC,NAC,older oxisol,NA,terra firma,NA,68,South America,Af,Tropical rainforest,106,Baker_2004_ibia; Chambers_2000_dacc; Malhi_2004_tacw,NA,NA,NA,NA,NA,46,1;2,NAC,NA,NA
180,Bionte 4,NA,NA,NA,Manaus,Amazonas,Brazil,-2.63,-60.17,73,NA,27.1,NAC,NAC,2381,Dry season length 3 mths,NAC,NAC,NAC,NAC,older oxisol,NA,terra firma,NA,68,South America,Af,Tropical rainforest,107,Baker_2004_ibia; Chambers_2000_dacc; Malhi_2004_tacw,NA,NA,NA,NA,NA,46,1;2,NAC,NA,NA
181,Bionte averaged (Chao2009),NA,NA,NA,NAC,Amazonas,Brazil,-2.63,-60.17,NAC,NA,NAC,NAC,NAC,NAC,NA,NAC,NAC,NAC,NAC,NAC,NA,NAC,NA,68,South America,Af,Tropical rainforest,1420,Chambers_2000_dacc,NA,Summers (1998) cited in Chambers et al. (2000),NA,Chao_2009_atdq,NA,46,1;2,NAC,NA,NA
182,Bionte T4 B1 SB3,NA,NA,NA,Manaus,Amazonas,Brazil,-2.63,-60.17,73,NA,27.1,NAC,NAC,2381,Dry season length 3 mths,NAC,NAC,NAC,NAC,older oxisol,NA,terra firma,NA,68,South America,Af,Tropical rainforest,108,Baker_2004_ibia; Malhi_2004_tacw,NA,NA,NA,NA,NA,46,1;2,NAC,NA,NA
183,Bionte T4 B2 SB1,NA,NA,NA,Manaus,Amazonas,Brazil,-2.63,-60.17,73,NA,27.1,NAC,NAC,2381,Dry season length 3 mths,NAC,NAC,NAC,NAC,older oxisol,NA,terra firma,NA,68,South America,Af,Tropical rainforest,110,Baker_2004_ibia; Malhi_2004_tacw,NA,NA,NA,NA,NA,46,1;2,NAC,NA,NA
184,Bionte T4 B4 SB4,NA,NA,NA,Manaus,Amazonas,Brazil,-2.63,-60.17,73,NA,27.1,NAC,NAC,2381,Dry season length 3 mths,NAC,NAC,NAC,NAC,older oxisol,NA,terra firma,NA,68,South America,Af,Tropical rainforest,109,Baker_2004_ibia; Malhi_2004_tacw,NA,NA,NA,NA,NA,46,1;2,NAC,NA,NA
185,Luquillo Experimental Forest: Bisley watersheds 1 and 2,NA,NA,Luquillo,NAC,Puerto Rico,United States of America,18.32,-65.82,355,"elevation 260-450. steep, highly dissected",NAC,NAC,NAC,3500,3000-4000 mm yr-1,NAC,NAC,NAC,NAC,NAC,NA,NAC,Secondary tabonuco forest,81,North America,Am,Tropical rainforest,360,Scatena_1993_banc; Scatena_1996_tffy,Scatena_1996_tffy,NA,NA,NA,NA,47,1;2,NAC,NA,NA
186,Bissiga B12,NA,NA,NA,NAC,Oubritenga,Burkina Faso,12.6833,-1.1667,300,NA,NAC,16,40,632,dry season 5-7 months,NAC,NAC,NAC,NAC,ferric luvisol,"ferric luvisol, ferruginous",NAC,NA,82,Africa,BSh,Tropical dry forest,322,Nygard_2004_wyis,NA,NA,NA,NA,NA,0,0,NA,NA,NA
187,Bitagron,NA,NA,NA,NAC,Sipaliwini,Suriname,5.079,-56.201,NAC,NA,NAC,NAC,NAC,2151,NA,NAC,NAC,NAC,NAC,NAC,NA,NAC,NA,83,South America,Af,Tropical rainforest,1369,Poorter_2015_decs,NA,NA,NA,NA,NA,0,0,NA,NA,NA
188,BKK-01a_Boukoko,NA,NA,NA,NAC,Lobaye,Central African Republic,3.83,18,487,NA,23.7,NAC,NAC,1677,NA,NAC,NAC,NAC,NAC,NAC,NA,NAC,NA,84,Africa,Aw,Tropical rainforest,211,Lewis_2009_icsi,NA,NA,NA,Lewis2009; Liu_2014_htpa,NA,0,0,NA,NA,NA
189,Black Rock Forest Chronosequence,NA,NA,NA,NAC,New York,United States of America,41.4,-74.017,280,NA,10.57,-2.7,23.4,1206,NA,loam,NAC,NAC,NAC,NAC,NA,NA,NA,85,North America,Dfa,Temperate mountain system,NA,Xu_2012_ados,NA,NA,NA,NA,NA,0,0,NA,NA,NA
190,"Black Spruce Muskeg, Site 1",NA,NA,NA,NAC,Alaska,United States of America,64,-148,166.7,NA,-3.441666921,NAC,NAC,376,NA,NAC,NAC,NAC,NAC,Inceptisol,Inceptisol. Pergelic Cryaquept.,NA,NA,86,North America,Dfc,Boreal mountain system,NA,DeAngelis_1981_pofe,NA,NA,NA,Anderson_2006_toba,NA,0,0,NA,NA,NA
191,"Black Spruce Muskeg, Site 2",NA,NA,NA,NAC,Alaska,United States of America,64,-148,469.7,NA,-3.441666921,NAC,NAC,376,NA,NAC,NAC,NAC,NAC,Inceptisol,Inceptisol. Pergelic Cryaquept.,NA,NA,86,North America,Dfc,Boreal mountain system,NA,DeAngelis_1981_pofe,NA,NA,NA,Anderson_2006_toba,NA,0,0,NA,NA,NA
192,Black Spruce-Feather Moss Site,NA,NA,NA,NAC,Alaska,United States of America,64,-148,NAC,NA,-3.441666921,NAC,NAC,376,NA,NAC,NAC,NAC,NAC,Inceptisol,Inceptisol. Pergelic Cryaquept.,NA,NA,86,North America,Dfc,Boreal mountain system,NA,DeAngelis_1981_pofe,NA,NA,NA,Anderson_2006_toba,NA,0,0,NA,NA,NA
193,Blodgett Forest,FluxNet,NA,NA,NAC,California,United States of America,38.88,-120.61,1315,NA,11.45,NAC,NAC,1540.33,NA,clay loam,NAC,NAC,NAC,NAC,NA,NA,NA,87,North America,Csb,Subtropical mountain system,NA,Falge_2002_soer; Goldstein_2015_fub; Misson_2005_iorf; Xu_2003_svic,Misson_2005_iorf; Law_2002_ecoc,NA,1,Luyssaert_2007_cbob,Maria,0,0,NA,NA,NA
194,Blue Mountain 1,NA,NA,NA,NAC,Oregon,United States of America,43.6776,-122.916,654,NA,NAC,NAC,NAC,NAC,NA,clay loam,NAC,NAC,NAC,NAC,NA,NA,NA,88,North America,Csb,Temperate mountain system,NA,Luyssaert_2007_cbob,NA,Sun et al 2004,1,Luyssaert_2007_cbob,Maria,0,0,NA,NA,NA
195,Blue Mountain 2,NA,NA,NA,NAC,Oregon,United States of America,43.7362,-122.9288,449,NA,NAC,NAC,NAC,NAC,NA,clay loam,NAC,NAC,NAC,NAC,NA,NA,NA,88,North America,Csb,Temperate mountain system,NA,Luyssaert_2007_cbob,NA,Sun et al 2004,1,Luyssaert_2007_cbob,Maria,0,0,NA,NA,NA
196,Blue Mountain 3,NA,NA,NA,NAC,Oregon,United States of America,43.6915,-122.9297,543,NA,NAC,NAC,NAC,NAC,NA,clay loam,NAC,NAC,NAC,NAC,NA,NA,NA,88,North America,Csb,Temperate mountain system,NA,Luyssaert_2007_cbob,NA,Sun et al 2004,1,Luyssaert_2007_cbob,Maria,0,0,NA,NA,NA
197,Blue Mountain 4,NA,NA,NA,NAC,Oregon,United States of America,43.6943,-122.8992,803,NA,NAC,NAC,NAC,NAC,NA,clay loam,NAC,NAC,NAC,NAC,NA,NA,NA,88,North America,Csb,Temperate mountain system,NA,Luyssaert_2007_cbob,NA,Sun et al 2004,1,Luyssaert_2007_cbob,Maria,0,0,NA,NA,NA
198,Blue Mountain 5,NA,NA,NA,NAC,Oregon,United States of America,43.7037,-122.9292,876,NA,NAC,NAC,NAC,NAC,NA,clay loam,NAC,NAC,NAC,NAC,NA,NA,NA,88,North America,Csb,Temperate mountain system,NA,Luyssaert_2007_cbob,NA,Sun et al 2004,1,Luyssaert_2007_cbob,Maria,0,0,NA,NA,NA
199,Blue Mountain 6,NA,NA,NA,NAC,Oregon,United States of America,43.7062,-122.9356,704,NA,NAC,NAC,NAC,NAC,NA,clay loam,NAC,NAC,NAC,NAC,NA,NA,NA,88,North America,Csb,Temperate mountain system,NA,Luyssaert_2007_cbob,NA,Sun et al 2004,1,Luyssaert_2007_cbob,Maria,0,0,NA,NA,NA
200,Blue Mtn. Mor Ridge,NA,NA,NA,NAC,Saint Andrew,Jamaica,18.08,-76.65,1615,montane,15.8,NAC,NAC,2230,NA,NAC,NAC,NAC,NAC,NAC,mor,NAC,Tropical montane,89,North America,Aw,Tropical mountain system,340,Clark_2013_ntfc; Tanner_1980_sotb,NA,"Tanner 1977, 1980a,b,1985",NA,NA,NA,52,1,1,NA,NA
201,Blue Mtn. Mull Ridge,NA,NA,NA,NAC,Saint Andrew,Jamaica,18.08,-76.65,1600,montane,15.5,NAC,NAC,2230,NA,NAC,NAC,NAC,NAC,NAC,mull,NAC,Tropical montane,89,North America,Aw,Tropical mountain system,341,Clark_2013_ntfc; Tanner_1980_sotb,NA,"Tanner 1977, 1980a,b,1985",NA,NA,NA,52,1,1,NA,NA
202,Blue Mtn.Gap Forest,NA,NA,NA,NAC,Saint Andrew,Jamaica,18.08,-76.65,1590,montane,15.5,NAC,NAC,2230,NA,NAC,NAC,NAC,NAC,NAC,NA,NAC,Tropical montane,89,North America,Aw,Tropical mountain system,342,Clark_2013_ntfc; Tanner_1980_sotb,NA,"Tanner 1977, 1980a,b,1985",NA,NA,NA,52,1,1,NA,NA
203,Blue Mtn.Wet Slope Forest,NA,NA,NA,NAC,Saint Andrew,Jamaica,18.08,-76.65,1570,montane,15.3,NAC,NAC,2230,NA,NAC,NAC,NAC,NAC,NAC,NA,NAC,Tropical montane,89,North America,Aw,Tropical mountain system,343,Clark_2013_ntfc; Tanner_1980_sotb,NA,"Tanner 1977, 1980a,b,1985",NA,NA,NA,52,1,1,NA,NA
204,Bogi 1 (PA),NA,NA,NA,NAC,Orellana,Ecuador,-0.7,-76.48,271,NA,24.9,NAC,NAC,3152,Dry season length 0.31 mths,NAC,NAC,NAC,NAC,inceptisol,NA,terra firma,NA,38,South America,Af,Tropical rainforest,125,Baker_2004_ibia; Malhi_2004_tacw,NA,NA,NA,NA,NA,53,1,1,NA,NA
205,Bogi 2 (PB),NA,NA,NA,NAC,Orellana,Ecuador,-0.7,-76.47,270,NA,25,NAC,NAC,3140,Dry season length 0.31 mths,NAC,NAC,NAC,NAC,inceptisol,NA,terra firma,NA,38,South America,Af,Tropical rainforest,126,Baker_2004_ibia; Malhi_2004_tacw,NA,NA,NA,NA,NA,53,1,1,NA,NA
206,"Bomi Cupressus, Sabina",NA,NA,NA,Changdu,Tibet,China,30.1,95,NAC,NA,11.2,NAC,NAC,582,NA,NAC,NAC,NAC,NAC,NAC,NA,NA,NA,90,Asia,Dwb,Subtropical mountain system,NA,Luo_1996_ponp,NA,Liu_2014_htpa,NA,Liu_2014_htpa,Maria,0,0,NA,NA,NA
207,"Bomi Picea, Abies 1",NA,NA,NA,NAC,Tibet,China,29.92,95.88,NAC,NA,9,NAC,NAC,850,NA,NAC,NAC,NAC,NAC,NAC,NA,NA,NA,91,Asia,Dwc,Subtropical mountain system,NA,Feng_1999_fbap,NA,Liu_2014_htpa,NA,Liu_2014_htpa,Maria,0,0,NA,NA,NA
208,"Bomi Picea, Abies 2",NA,NA,NA,Changdu,Tibet,China,29.8,95.7,NAC,NA,6.6,NAC,NAC,850,NA,NAC,NAC,NAC,NAC,NAC,NA,NA,NA,91,Asia,Dwc,Subtropical mountain system,NA,Luo_1996_ponp,NA,Liu_2014_htpa,NA,Liu_2014_htpa,Maria,0,0,NA,NA,NA
209,Bomi Quercus 1,NA,NA,NA,Changdu,Tibet,China,29.7,96.1,NAC,NA,6.4,NAC,NAC,850,NA,NAC,NAC,NAC,NAC,NAC,NA,NA,NA,92,Asia,ET,Subtropical mountain system,NA,Luo_1996_ponp,NA,Liu_2014_htpa,NA,Liu_2014_htpa,Maria,0,0,NA,NA,NA
210,Bomi Quercus 2,NA,NA,NA,Changdu,Tibet,China,29.8,95.7,NAC,NA,7.7,NAC,NAC,850,NA,NAC,NAC,NAC,NAC,NAC,NA,NA,NA,91,Asia,Dwc,Subtropical mountain system,NA,Luo_1996_ponp,NA,Liu_2014_htpa,NA,Liu_2014_htpa,Maria,0,0,NA,NA,NA
211,Bonanza 5A,LTER,BNZ LTER-5A,Bonanza Creek ,Fairbanks,Alaska,United States of America,64.8,-147.87,133,"coordinates imprecise. ""along the floodplain of the Tanana River, ~30km southwest of Fairbanks, Alaska (64deg48min N, 147deg52min W)",-3.5,NAC,NAC,269,NA,clay loam,NAC,NAC,NAC,Pergelic Cryaquepts,Pergelic Cryaquepts,Soil Drainage:  Wet,NA,12,North America,Dfc,Boreal tundra woodland,NA,Ruess_2003_cfrd,Ruess_2003_cfrd,NA,1,Luyssaert_2007_cbob; Bond-Lamberty_2004_corr,Maria;R script: Bond-Lamberty,55,1,1,NA,probably unique
212,Bonanza 5C,LTER,BNZ LTER-5C,Bonanza Creek ,Fairbanks,Alaska,United States of America,64.8,-147.87,129,coordinates imprecise,-3.5,NAC,NAC,269,NA,clay loam,NAC,NAC,NAC,Pergelic Cryaquepts,Pergelic Cryaquepts,Soil Drainage:  Wet,NA,12,North America,Dfc,Boreal tundra woodland,NA,Ruess_2003_cfrd,Ruess_2003_cfrd,NA,1,Luyssaert_2007_cbob; Bond-Lamberty_2004_corr,Maria;R script: Bond-Lamberty,55,1,1,NA,probably unique
213,Bonanza 5D,LTER,BNZ LTER-5D,Bonanza Creek ,Fairbanks,Alaska,United States of America,64.8,-147.87,NI,coordinates imprecise,-3.5,NAC,NAC,269,NA,clay loam,NAC,NAC,NAC,Pergelic Cryaquepts,Pergelic Cryaquepts,Soil Drainage:  Wet,NA,12,North America,Dfc,Boreal tundra woodland,NA,Ruess_2003_cfrd,Ruess_2003_cfrd,NA,1,Luyssaert_2007_cbob; Bond-Lamberty_2004_corr,Maria;R script: Bond-Lamberty,55,1,1,NA,probably unique
214,Bonanza Creek high-elevation area with no permafrost (high-np),LTER,Bonanza 6.1; Bonanza Creek Long Term Ecological Research (LTER) study within the Bonanza Creek Experimental Forest,Bonanza Creek ,Fairbanks,Alaska,United States of America,64.8,-147.87,580,"part of the Bonanza Creek Long Term Ecological Research (LTER) study within the Bonanza Creek Experimental Forest (64deg48min N, 147deg52min W). ",-3.3,-24.9,16.4,269,NA,clay loam,NAC,NAC,NAC,Loess,Loess,Soil Drainage:  Dry,NA,12,North America,Dfc,Boreal tundra woodland,NA,Vogel_2005_sarr,Vogel_2005_sarr,NA,1,Luyssaert_2007_cbob,Maria,55,1,1,NA,probably unique
215,Bonanza Creek mid-elevation deep permafrost area (mid-dp),NA,Bonanza 6.2,Bonanza Creek ,Fairbanks,Alaska,United States of America,64.8,-147.87,184,"Within 30km of High-np, which is part of the Bonanza Creek Long Term Ecological Research (LTER) study within the Bonanza Creek Experimental Forest (64deg48min N, 147deg52min W). ",-3.3,-24.9,16.4,269,NA,clay loam,NAC,NAC,NAC,NAC,NA,NA,NA,12,North America,Dfc,Boreal tundra woodland,NA,Vogel_2005_sarr,Vogel_2005_sarr,NA,1,Luyssaert_2007_cbob,Maria,55,1,1,NA,probably unique
216,Bonanza Creek low-elevation shallow permafrost (low-sp),NA,Bonanza 6.3,Bonanza Creek ,Fairbanks,Alaska,United States of America,64.8,-147.87,124,"Within 30km of High-np, which is part of the Bonanza Creek Long Term Ecological Research (LTER) study within the Bonanza Creek Experimental Forest (64deg48min N, 147deg52min W). ",-3.3,-24.9,16.4,269,NA,clay loam,NAC,NAC,NAC,NAC,NA,NA,NA,12,North America,Dfc,Boreal tundra woodland,NA,Vogel_2005_sarr,Vogel_2005_sarr,NA,1,Luyssaert_2007_cbob,Maria,55,1,1,NA,probably unique
217,Bonanza Creek/Standard Creek,NA,NA,Bonanza Creek ,Fairbanks,Alaska,United States of America,64.783333,-148.375,NAC,*took average of two coordinates,NAC,NAC,NAC,NAC,NA,NAC,NAC,NAC,NAC,NAC,NA,NA,NA,12,North America,Dfc,Boreal tundra woodland,NA,Grunzweig_2015_scic,NA,NA,NA,NA,Maria,0,0,1,NA,probably unique
218,Bonanza FP2,NA,NA,Bonanza Creek ,Fairbanks,Alaska,United States of America,64.75,-148.25,NI,NA,-3.5,NAC,NAC,269,NA,clay loam,NAC,NAC,NAC,NAC,NA,NA,NA,12,North America,Dfc,Boreal tundra woodland,NA,Gower_2001_nppa; Ruess_1996_cofr,Ruess_1996_cofr,Olsen et al 2001,1,Luyssaert_2007_cbob,Maria,0,0,1,NA,probably unique
219,Bonanza FP3,NA,NA,Bonanza Creek ,Fairbanks,Alaska,United States of America,64.75,-148.25,NI,NA,-3.5,NAC,NAC,269,NA,clay loam,NAC,NAC,NAC,NAC,NA,NA,NA,12,North America,Dfc,Boreal tundra woodland,NA,Gower_2001_nppa; Ruess_1996_cofr,Ruess_1996_cofr,Olsen et al 2001,1,Luyssaert_2007_cbob,Maria,0,0,1,NA,probably unique
220,Bonanza FP4,NA,NA,Bonanza Creek ,Fairbanks,Alaska,United States of America,64.75,-148.25,NI,NA,-3.5,NAC,NAC,269,NA,clay loam,NAC,NAC,NAC,NAC,NA,NA,NA,12,North America,Dfc,Boreal tundra woodland,NA,Gower_2001_nppa; Ruess_1996_cofr,Ruess_1996_cofr,Olsen et al 2001,1,Luyssaert_2007_cbob,Maria,0,0,1,NA,probably unique
221,Bonanza FP5,NA,NA,Bonanza Creek ,Fairbanks,Alaska,United States of America,64.75,-148.25,NI,NA,-3.5,NAC,NAC,269,NA,clay loam,NAC,NAC,NAC,NAC,NA,NA,NA,12,North America,Dfc,Boreal tundra woodland,NA,Gower_2001_nppa; Ruess_1996_cofr,Ruess_1996_cofr,Olsen et al 2001,1,Luyssaert_2007_cbob,Maria,0,0,1,NA,probably unique
222,Bonanza UP2,NA,NA,Bonanza Creek ,Fairbanks,Alaska,United States of America,64.75,-148.25,NI,NA,-3.5,NAC,NAC,269,NA,clay loam,NAC,NAC,NAC,NAC,NA,NA,NA,12,North America,Dfc,Boreal tundra woodland,NA,Gower_2001_nppa; Ruess_1996_cofr,Ruess_1996_cofr,Olsen et al 2001,1,Luyssaert_2007_cbob,Maria,0,0,1,NA,probably unique
223,Bonanza UP3,NA,NA,Bonanza Creek ,Fairbanks,Alaska,United States of America,64.75,-148.25,NI,NA,-3.5,NAC,NAC,269,NA,clay loam,NAC,NAC,NAC,NAC,NA,NA,NA,12,North America,Dfc,Boreal tundra woodland,NA,Gower_2001_nppa; Ruess_1996_cofr,Ruess_1996_cofr,Olsen et al 2001,1,Luyssaert_2007_cbob,Maria,0,0,1,NA,probably unique
224,Boqueron,NA,NA,NA,NAC,Colon,Panama,9.333333,-79.833333,NAC,on Lago Alajuela in Chagres National Park.,NAC,NAC,NAC,2650,4 month long dry season from Dec-April,silty loam,NAC,NAC,NAC,NAC,Light grey surface,NAC,NA,7,North America,Am,Tropical rainforest,278,Kraenzel_2003_csoh,NA,NA,NA,NA,NA,4,1,1,NA,NA
225,Boreal Soil and Air Warming Experiment site,NA,NA,BOREAS (Boreal Ecosystem-Atmospehre Study),Thompson,Manitoba,Canada,55.88,-98.33,NAC,NA,-3,NAC,NAC,510,NA,NAC,NAC,NAC,NAC,NAC,NA,NA,NA,93,North America,Dfc,Boreal coniferous forest,NA,Bronson_2007_ross,NA,NA,NA,NA,NA,56,1,supersite,NA,NA
226,BOREAS NOBS-1850,FluxNet,NA,BOREAS (Boreal Ecosystem-Atmospehre Study),NAC,Manitoba,Canada,55.879,-98.48,NAC,NA,NAC,NAC,NAC,NAC,NA,NAC,NAC,NAC,NAC,NAC,NA,NA,NA,93,North America,Dfc,Boreal coniferous forest,NA,Goulden_2011_pong,NA,NA,NA,NA,NA,56,1,supersite,NA,NA
227,BOREAS University of California-1850,FluxNet,NA,BOREAS (Boreal Ecosystem-Atmospehre Study),NAC,Manitoba,Canada,55.879,-98.484,NAC,NA,NAC,NAC,NAC,NAC,NA,NAC,NAC,NAC,NAC,NAC,NA,NA,NA,93,North America,Dfc,Boreal coniferous forest,NA,Goulden_2011_pong,NA,NA,NA,NA,NA,56,1,supersite,NA,NA
228,BOREAS University of California-1930,FluxNet,NA,BOREAS (Boreal Ecosystem-Atmospehre Study),NAC,Manitoba,Canada,55.906,-98.525,NAC,NA,NAC,NAC,NAC,NAC,NA,NAC,NAC,NAC,NAC,NAC,NA,NA,NA,93,North America,Dfc,Boreal coniferous forest,NA,Goulden_2011_pong,NA,NA,NA,NA,NA,56,1,supersite,NA,NA
229,BOREAS University of California-1964,FluxNet,NA,BOREAS (Boreal Ecosystem-Atmospehre Study),NAC,Manitoba,Canada,55.912,-98.382,NAC,NA,NAC,NAC,NAC,NAC,NA,NAC,NAC,NAC,NAC,NAC,NA,NA,NA,93,North America,Dfc,Boreal coniferous forest,NA,Goulden_2011_pong,NA,NA,NA,NA,NA,56,1,supersite,NA,NA
230,BOREAS University of California-1981,FluxNet,NA,BOREAS (Boreal Ecosystem-Atmospehre Study),NAC,Manitoba,Canada,55.863,-98.485,NAC,NA,NAC,NAC,NAC,NAC,NA,NAC,NAC,NAC,NAC,NAC,NA,NA,NA,93,North America,Dfc,Boreal coniferous forest,NA,Goulden_2011_pong,NA,NA,NA,NA,NA,56,1,supersite,NA,NA
231,BOREAS University of California-1989,FluxNet,NA,BOREAS (Boreal Ecosystem-Atmospehre Study),NAC,Manitoba,Canada,55.917,-98.964,NAC,NA,NAC,NAC,NAC,NAC,NA,NAC,NAC,NAC,NAC,NAC,NA,NA,NA,93,North America,Dfc,Boreal coniferous forest,NA,Goulden_2011_pong,NA,NA,NA,NA,NA,57,1;2,supersite,NA,NA
232,BOREAS University of California-1998,FluxNet,NA,BOREAS (Boreal Ecosystem-Atmospehre Study),NAC,Manitoba,Canada,56.636,-99.948,NAC,NA,NAC,NAC,NAC,NAC,NA,NAC,NAC,NAC,NAC,NAC,NA,NA,NA,94,North America,Dfc,Boreal coniferous forest,NA,Goulden_2011_pong,NA,NA,NA,NA,NA,58,1;2,supersite,NA,NA
233,BOREAS University of California-2003,FluxNet,NA,NA,NAC,Manitoba,Canada,55.898,-98.216,NAC,NA,NAC,NAC,NAC,NAC,NA,NAC,NAC,NAC,NAC,NAC,NA,NA,NA,93,North America,Dfc,Boreal coniferous forest,NA,Goulden_2011_pong,NA,NA,NA,NA,NA,0,0,NA,NA,NA
234,BOREAS University of Wisconsin-D1850,FluxNet,NA,BOREAS (Boreal Ecosystem-Atmospehre Study),NAC,Manitoba,Canada,55.879,-98.48,NAC,NA,NAC,NAC,NAC,NAC,NA,NAC,NAC,NAC,NAC,NAC,NA,NA,NA,93,North America,Dfc,Boreal coniferous forest,NA,Goulden_2011_pong,NA,NA,NA,NA,NA,56,1,supersite,NA,NA
235,BOREAS University of Wisconsin-D1930,FluxNet,NA,BOREAS (Boreal Ecosystem-Atmospehre Study),NAC,Manitoba,Canada,55.908,-98.519,NAC,NA,NAC,NAC,NAC,NAC,NA,NAC,NAC,NAC,NAC,NAC,NA,NA,NA,93,North America,Dfc,Boreal coniferous forest,NA,Goulden_2011_pong,NA,NA,NA,NA,NA,56,1,supersite,NA,NA
236,BOREAS University of Wisconsin-D1964,FluxNet,NA,NA,NAC,Manitoba,Canada,55.92,-98.656,NAC,NA,NAC,NAC,NAC,NAC,NA,NAC,NAC,NAC,NAC,NAC,NA,NA,NA,93,North America,Dfc,Boreal coniferous forest,NA,Goulden_2011_pong,NA,NA,NA,NA,NA,0,0,NA,NA,NA
237,BOREAS University of Wisconsin-D1981,FluxNet,NA,BOREAS (Boreal Ecosystem-Atmospehre Study),NAC,Manitoba,Canada,55.864,-98.483,NAC,NA,NAC,NAC,NAC,NAC,NA,NAC,NAC,NAC,NAC,NAC,NA,NA,NA,93,North America,Dfc,Boreal coniferous forest,NA,Goulden_2011_pong,NA,NA,NA,NA,NA,56,1,supersite,NA,NA
238,BOREAS University of Wisconsin-D1989,FluxNet,NA,BOREAS (Boreal Ecosystem-Atmospehre Study),NAC,Manitoba,Canada,55.906,-98.979,NAC,NA,NAC,NAC,NAC,NAC,NA,NAC,NAC,NAC,NAC,NAC,NA,NA,NA,93,North America,Dfc,Boreal coniferous forest,NA,Goulden_2011_pong,NA,NA,NA,NA,NA,57,1;2,supersite,NA,NA
239,BOREAS University of Wisconsin-D1998,FluxNet,NA,BOREAS (Boreal Ecosystem-Atmospehre Study),NAC,Manitoba,Canada,56.628,-99.942,NAC,NA,NAC,NAC,NAC,NAC,NA,NAC,NAC,NAC,NAC,NAC,NA,NA,NA,94,North America,Dfc,Boreal coniferous forest,NA,Goulden_2011_pong,NA,NA,NA,NA,NA,58,1;2,supersite,NA,NA
240,Bornhoved Alder,NA,NA,NA,NAC,Schleswig-Holstein,Germany,54.1,10.23,NI,NA,8.9,NAC,NAC,772,NA,loam,NAC,NAC,NAC,NAC,NA,NA,NA,95,Europe,Cfb,Temperate oceanic forest,NA,Kutsch_2001_fmor; Luyssaert_2007_cbob,Kutsch_2001,NA,1,Luyssaert_2007_cbob,Maria,0,0,NA,NA,NA
241,Bornhoved Beech,NA,NA,NA,NAC,Schleswig-Holstein,Germany,54.1,10.23,NI,NA,8.9,NAC,NAC,772,NA,loam,NAC,NAC,NAC,NAC,NA,NA,NA,95,Europe,Cfb,Temperate oceanic forest,NA,Kutsch_2001_tcco; Luyssaert_2007_cbob,Kutsch_2001,NA,1,Luyssaert_2007_cbob,Maria,0,0,NA,NA,NA
242,Boulder junction C,NA,NA,NA,NAC,Wisconsin,United States of America,46.16,-89.66,500,NA,NAC,NAC,NAC,NAC,NA,sandy loam,NAC,NAC,NAC,NAC,NA,NA,NA,96,North America,Dfb,Temperate continental forest,NA,Haynes_1995_bcai,Haynes_1995_bcai,NA,1,Luyssaert_2007_cbob,Maria,0,0,NA,NA,NA
243,Boulder junction fertilized,NA,NA,NA,NAC,Wisconsin,United States of America,46.16,-89.66,500,NA,NAC,NAC,NAC,NAC,NA,sandy loam,NAC,NAC,NAC,NAC,NA,NA,NA,96,North America,Dfb,Temperate continental forest,NA,Haynes_1995_bcai,Haynes_1995_bcai,NA,1,Luyssaert_2007_cbob,Maria,0,0,NA,NA,NA
244,BR-319_M01_TN_1500,NA,NA,NA,NAC,Amazonas,Brazil,-3.353,-59.856,NAC,NA,NAC,NAC,NAC,2236,NA,NAC,NAC,NAC,NAC,NAC,NA,NAC,NA,36,South America,Am,Tropical rainforest,1322,Poorter_2015_decs,NA,NA,NA,NA,NA,61,1,1,NA,NA
245,BR-319_M01_TN_3500,NA,NA,NA,NAC,Amazonas,Brazil,-3.346,-59.83,NAC,NA,NAC,NAC,NAC,2236,NA,NAC,NAC,NAC,NAC,NAC,NA,NAC,NA,36,South America,Am,Tropical rainforest,1323,Poorter_2015_decs,NA,NA,NA,NA,NA,61,1,1,NA,NA
246,BR-319_M02_TN_0500,NA,NA,NA,NAC,Amazonas,Brazil,-3.688,-60.332,NAC,NA,NAC,NAC,NAC,2281,NA,NAC,NAC,NAC,NAC,NAC,NA,NAC,NA,97,South America,Am,Tropical rainforest,1324,Poorter_2015_decs,NA,NA,NA,NA,NA,62,1,1,NA,NA
247,BR-319_M02_TN_1500,NA,NA,NA,NAC,Amazonas,Brazil,-3.683,-60.324,NAC,NA,NAC,NAC,NAC,2280,NA,NAC,NAC,NAC,NAC,NAC,NA,NAC,NA,97,South America,Am,Tropical rainforest,1325,Poorter_2015_decs,NA,NA,NA,NA,NA,62,1,1,NA,NA
248,BR-319_M02_TN_4500,NA,NA,NA,NAC,Amazonas,Brazil,-3.669,-60.301,NAC,NA,NAC,NAC,NAC,2280,NA,NAC,NAC,NAC,NAC,NAC,NA,NAC,NA,97,South America,Am,Tropical rainforest,1326,Poorter_2015_decs,NA,NA,NA,NA,NA,62,1,1,NA,NA
249,BR-319_M04_TN_0500,NA,NA,NA,NAC,Amazonas,Brazil,-4.383,-60.943,NAC,NA,NAC,NAC,NAC,2373,NA,NAC,NAC,NAC,NAC,NAC,NA,NAC,NA,98,South America,Af,Tropical rainforest,1327,Poorter_2015_decs,NA,NA,NA,NA,NA,63,1,1,NA,NA
250,BR-319_M04_TN_3500,NA,NA,NA,NAC,Amazonas,Brazil,-4.402,-60.923,NAC,NA,NAC,NAC,NAC,2381,NA,NAC,NAC,NAC,NAC,NAC,NA,NAC,NA,98,South America,Af,Tropical rainforest,1328,Poorter_2015_decs,NA,NA,NA,NA,NA,63,1,1,NA,NA
251,BR-319_M05_TN_(-)0500,NA,NA,NA,NAC,Amazonas,Brazil,-4.616,-61.244,NAC,NA,NAC,NAC,NAC,2392,NA,NAC,NAC,NAC,NAC,NAC,NA,NAC,NA,99,South America,Af,Tropical rainforest,1329,Poorter_2015_decs,NA,NA,NA,NA,NA,64,1,1,NA,NA
252,BR-319_M05_TN_1500,NA,NA,NA,NAC,Amazonas,Brazil,-4.603,-61.258,NAC,NA,NAC,NAC,NAC,2391,NA,NAC,NAC,NAC,NAC,NAC,NA,NAC,NA,99,South America,Af,Tropical rainforest,1330,Poorter_2015_decs,NA,NA,NA,NA,NA,64,1,1,NA,NA
253,BR-319_M06_TN_(-)0500,NA,NA,NA,NAC,Amazonas,Brazil,-4.984,-61.571,NAC,NA,NAC,NAC,NAC,2418,NA,NAC,NAC,NAC,NAC,NAC,NA,NAC,NA,100,South America,Af,Tropical rainforest,1331,Poorter_2015_decs,NA,NA,NA,NA,NA,65,1,1,NA,NA
254,BR-319_M06_TN_0500,NA,NA,NA,NAC,Amazonas,Brazil,-4.99,-61.563,NAC,NA,NAC,NAC,NAC,2428,NA,NAC,NAC,NAC,NAC,NAC,NA,NAC,NA,100,South America,Af,Tropical rainforest,1332,Poorter_2015_decs,NA,NA,NA,NA,NA,65,1,1,NA,NA
255,BR-319_M06_TN_1500,NA,NA,NA,NAC,Amazonas,Brazil,-4.994,-61.556,NAC,NA,NAC,NAC,NAC,2428,NA,NAC,NAC,NAC,NAC,NAC,NA,NAC,NA,100,South America,Af,Tropical rainforest,1333,Poorter_2015_decs,NA,NA,NA,NA,NA,65,1,1,NA,NA
256,BR-319_M06_TN_2500,NA,NA,NA,NAC,Amazonas,Brazil,-4.999,-61.549,NAC,NA,NAC,NAC,NAC,2428,NA,NAC,NAC,NAC,NAC,NAC,NA,NAC,NA,100,South America,Af,Tropical rainforest,1334,Poorter_2015_decs,NA,NA,NA,NA,NA,65,1,1,NA,NA
257,BR-319_M08_TS_0500,NA,NA,NA,NAC,Amazonas,Brazil,-5.629,-62.194,NAC,NA,NAC,NAC,NAC,2409,NA,NAC,NAC,NAC,NAC,NAC,NA,NAC,NA,101,South America,Af,Tropical rainforest,1335,Poorter_2015_decs,NA,NA,NA,NA,NA,66,1,1,NA,NA
258,BR-319_M08_TS_1500,NA,NA,NA,NAC,Amazonas,Brazil,-5.634,-62.186,NAC,NA,NAC,NAC,NAC,2409,NA,NAC,NAC,NAC,NAC,NAC,NA,NAC,NA,101,South America,Af,Tropical rainforest,1336,Poorter_2015_decs,NA,NA,NA,NA,NA,66,1,1,NA,NA
259,BR-319_M08_TS_2500,NA,NA,NA,NAC,Amazonas,Brazil,-5.638,-62.178,NAC,NA,NAC,NAC,NAC,2416,NA,NAC,NAC,NAC,NAC,NAC,NA,NAC,NA,101,South America,Af,Tropical rainforest,1337,Poorter_2015_decs,NA,NA,NA,NA,NA,66,1,1,NA,NA
260,BR-319_M09_TS_2500,NA,NA,NA,NAC,Amazonas,Brazil,-5.947,-62.51,NAC,NA,NAC,NAC,NAC,2383,NA,NAC,NAC,NAC,NAC,NAC,NA,NAC,NA,102,South America,Af,Tropical rainforest,1338,Poorter_2015_decs,NA,NA,NA,NA,NA,67,1,1,NA,NA
261,BR-319_M09_TS_3500,NA,NA,NA,NAC,Amazonas,Brazil,-5.94,-62.516,NAC,NA,NAC,NAC,NAC,2383,NA,NAC,NAC,NAC,NAC,NAC,NA,NAC,NA,102,South America,Af,Tropical rainforest,1339,Poorter_2015_decs,NA,NA,NA,NA,NA,67,1,1,NA,NA
262,BR-319_M10_TS_1500,NA,NA,NA,NAC,Amazonas,Brazil,-6.574,-62.931,NAC,NA,NAC,NAC,NAC,2335,NA,NAC,NAC,NAC,NAC,NAC,NA,NAC,NA,103,South America,Am,Tropical rainforest,1340,Poorter_2015_decs,NA,NA,NA,NA,NA,68,1,1,NA,NA
263,BR-319_M10_TS_2500,NA,NA,NA,NAC,Amazonas,Brazil,-6.575,-62.922,NAC,NA,NAC,NAC,NAC,2335,NA,NAC,NAC,NAC,NAC,NAC,NA,NAC,NA,103,South America,Am,Tropical rainforest,1341,Poorter_2015_decs,NA,NA,NA,NA,NA,68,1,1,NA,NA
264,BR-319_M11_TN_1500,NA,NA,NA,NAC,Amazonas,Brazil,-7.207,-63.117,NAC,NA,NAC,NAC,NAC,2272,NA,NAC,NAC,NAC,NAC,NAC,NA,NAC,NA,104,South America,Am,Tropical rainforest,1342,Poorter_2015_decs,NA,NA,NA,NA,NA,69,1,1,NA,NA
265,BR-319_M11_TN_2500,NA,NA,NA,NAC,Amazonas,Brazil,-7.211,-63.109,NAC,NA,NAC,NAC,NAC,2267,NA,NAC,NAC,NAC,NAC,NAC,NA,NAC,NA,104,South America,Am,Tropical rainforest,1343,Poorter_2015_decs,NA,NA,NA,NA,NA,69,1,1,NA,NA
266,Bradford county 1,NA,NA,NA,NAC,Florida,United States of America,29.53,-82.19,NI,NA,NAC,NAC,NAC,NAC,NA,clay loam,NAC,NAC,NAC,NAC,NA,NA,NA,52,North America,Cfa,Subtropical humid forest,NA,Ewel_1987_scei,Ewel_1987_scei,NA,1,Luyssaert_2007_cbob,Maria,0,0,NA,NA,NA
267,Bradford county 2,NA,NA,NA,NAC,Florida,United States of America,29.53,-82.19,NI,NA,NAC,NAC,NAC,NAC,NA,clay loam,NAC,NAC,NAC,NAC,NA,NA,NA,52,North America,Cfa,Subtropical humid forest,NA,Ewel_1987_scei,Ewel_1987_scei,NA,1,Luyssaert_2007_cbob,Maria,0,0,NA,NA,NA
268,Brasschaat,FluxNet,NA,NA,NAC,Antwerp,Belgium,51.31,4.52,16,NA,10.58,NAC,NAC,847.2,NA,loam,NAC,NAC,NAC,NAC,soil class from Granier2007,NA,NA,105,Europe,Cfb,Temperate oceanic forest,NA,CarboEurope-IP_2006_cd; Carrara_2003_nece; FLUXNET2015_2015_fbb; FLUXNET2015_2015_fbv; Law_2002_ecoc; Nagy_2006_fane; Nagy_2006_fnec; Valentini_2000_ratm; Yu_2014_hcdu,Granier_2007_efsw,CD Carbodata,1,Luyssaert_2007_cbob,Maria,0,0,NA,NA,NA
269,Brasschaat Oak,NA,NA,NA,NAC,Antwerp,Belgium,51.31,4.52,16,NA,9.8,NAC,NAC,750,NA,loam,NAC,NAC,NAC,NAC,NA,NA,NA,105,Europe,Cfb,Temperate oceanic forest,NA,Yuste_2005_cnpp,Yuste_2005_cnpp,CD Carbodata,1,Luyssaert_2007_cbob,Maria,0,0,NA,NA,NA
270,Brasschaat Pine,NA,NA,NA,NAC,Antwerp,Belgium,51.31,4.52,16,NA,9.8,NAC,NAC,750,NA,loam,NAC,NAC,NAC,Umbric regosol,soil class from Granier2007,NA,NA,105,Europe,Cfb,Temperate oceanic forest,NA,Yuste_2005_cnpp,Yuste_2005_cnpp; Granier_2007_efws,CD Carbodata,1,Luyssaert_2007_cbob,Maria,0,0,NA,NA,NA
271,Brasschaat young,NA,NA,NA,NAC,Antwerp,Belgium,51.31,4.52,16,NA,9.8,NAC,NAC,750,NA,loam,NAC,NAC,NAC,NAC,NA,NA,NA,105,Europe,Cfb,Temperate oceanic forest,NA,Janssens_1998_eaci,Janssens_1998_eaci,NA,1,Luyssaert_2007_cbob,Maria,0,0,NA,NA,NA
272,Brazilian Lower Amazon land use and fire recovery age sequence,NA,NA,NA,Santarem,Para,Brazil,-3.25,-52.25,NAC,NA,25.30833356,NAC,NAC,2225,NA,NAC,NAC,NAC,NAC,NAC,NA,NAC,NA,106,South America,Am,Tropical rainforest,71,Sorrensen_2000_lslu,NA,NA,NA,Anderson_2006_toba,NA,0,0,NA,NA,NA
273,Brazilian Lower Amazon mature forest,NA,NA,NA,Santarem,Para,Brazil,-3.25,-52.25,NAC,NA,25.30833356,NAC,NAC,2225,NA,NAC,NAC,NAC,NAC,NAC,NA,NAC,NA,106,South America,Am,Tropical rainforest,72,Sorrensen_2000_lslu,NA,NA,NA,Anderson_2006_toba,NA,0,0,NA,NA,NA
274,Breitenbush Hot Springs 1,NA,NA,NA,NAC,Oregon,United States of America,44.7824,-121.8975,1392,NA,NAC,NAC,NAC,NAC,NA,loam,NAC,NAC,NAC,NAC,NA,NA,NA,66,North America,Csb,Temperate mountain system,NA,Luyssaert_2007_cbob,NA,Sun et al 2004,1,Luyssaert_2007_cbob,Maria,0,0,NA,NA,NA
275,Breitenbush Hot Springs 2,NA,NA,NA,NAC,Oregon,United States of America,44.8006,-121.9901,853,NA,NAC,NAC,NAC,NAC,NA,loam,NAC,NAC,NAC,NAC,NA,NA,NA,66,North America,Csb,Temperate mountain system,NA,Luyssaert_2007_cbob,NA,Sun et al 2004,1,Luyssaert_2007_cbob,Maria,0,0,NA,NA,NA
276,Breitenbush Hot Springs 3,NA,NA,NA,NAC,Oregon,United States of America,44.763,-121.8859,1447,NA,NAC,NAC,NAC,NAC,NA,loam,NAC,NAC,NAC,NAC,NA,NA,NA,66,North America,Csb,Temperate mountain system,NA,Luyssaert_2007_cbob,NA,Sun et al 2004,1,Luyssaert_2007_cbob,Maria,0,0,NA,NA,NA
277,Breitenbush Hot Springs 4,NA,NA,NA,NAC,Oregon,United States of America,44.7894,-121.9945,835,NA,NAC,NAC,NAC,NAC,NA,loam,NAC,NAC,NAC,NAC,NA,NA,NA,66,North America,Csb,Temperate mountain system,NA,Luyssaert_2007_cbob,NA,Sun et al 2004,1,Luyssaert_2007_cbob,Maria,0,0,NA,NA,NA
278,Breitenbush Hot Springs 5,NA,NA,NA,NAC,Oregon,United States of America,44.7723,-121.9007,1310,NA,NAC,NAC,NAC,NAC,NA,loam,NAC,NAC,NAC,NAC,NA,NA,NA,66,North America,Csb,Temperate mountain system,NA,Luyssaert_2007_cbob,NA,Sun et al 2004,1,Luyssaert_2007_cbob,Maria,0,0,NA,NA,NA
279,Breitenbush Hot Springs 6,NA,NA,NA,NAC,Oregon,United States of America,44.7855,-121.8935,1383,NA,NAC,NAC,NAC,NAC,NA,loam,NAC,NAC,NAC,NAC,NA,NA,NA,66,North America,Csb,Temperate mountain system,NA,Luyssaert_2007_cbob,NA,Sun et al 2004,1,Luyssaert_2007_cbob,Maria,0,0,NA,NA,NA
280,Brindabella Range Eucalyptus pauciflora forest,NA,Brindabella,NA,Canberra,Australian Capital Territory,Australia,-35.389722,148.803889,1220,NA,13.5,NAC,NAC,1200,NA,loamclay,NAC,NAC,NAC,Red Earth (clay loam),Red Earth (clay loam),Soil Drainage:  Dry,NA,80,Australia,Cfb,Temperate mountain system,NA,Keith_1997_aoci; Keith_1997_eosp,Keith_1997_eosp,NA,NA,NA,NA,75,1,1,NA,NA
281,Broad Creek Memorial Reserve,NA,NA,NA,NAC,Maryland,United States of America,39.68525,-76.252664,NAC,NA,NAC,NAC,NAC,NAC,NA,NAC,NAC,NAC,NAC,NAC,NA,NA,NA,107,North America,Cfa,Temperate continental forest,NA,McGarvey_2015_csio,NA,NA,NA,NA,Maria,0,0,NA,NA,NA
282,Brookhaven,NA,NA,NA,NAC,New York,United States of America,40.83,-72.9,1,NA,9.8,NAC,NAC,1240,NA,clay loam,NAC,NAC,NAC,NAC,NA,NA,NA,108,North America,Cfa,Temperate continental forest,NA,DeAngelis_1981_pofe,DeAngelis_1981_pofe,"DeAngelis et al 1981 IBP_96,",1,Luyssaert_2007_cbob,Maria,0,0,NA,NA,NA
283,Brownsberg,NA,NA,NA,NAC,Brokopondo,Suriname,4.946,-55.178,NAC,NA,NAC,NAC,NAC,2397,NA,NAC,NAC,NAC,NAC,NAC,NA,NAC,NA,109,South America,Af,Tropical rainforest,1368,Poorter_2015_decs,NA,NA,NA,NA,NA,0,0,NA,NA,NA
284,"Buchanan S.F., Sweet Root Natural Area",NA,NA,NA,NAC,Pennsylvania,United States of America,39.843137,-78.532878,NAC,NA,NAC,NAC,NAC,NAC,NA,NAC,NAC,NAC,NAC,NAC,NA,NA,NA,110,North America,Cfa,Temperate mountain system,NA,McGarvey_2015_csio,NA,NA,NA,NA,Maria,0,0,NA,NA,NA
285,BUD-17_Budongo Plot 7,NA,NA,NA,NAC,Masindi,Uganda,1.72,31.5,1085,NA,23,NAC,NAC,1326,NA,NAC,NAC,NAC,NAC,NAC,NA,NAC,NA,111,Africa,Am,Tropical rainforest,152,Lewis_2009_icsi,NA,NA,NA,Lewis2009; Liu_2014_htpa,NA,0,0,NA,NA,NA
286,Buen Uso,NA,NA,NA,NAC,Guanacaste,Costa Rica,10.8393,-85.6152,321,NA,25.7,NAC,NAC,1556,NA,NAC,NAC,NAC,NAC,Entisol,NA,NAC,NA,69,North America,Aw,Tropical moist forest,1268,Cifuentes-Jara_2008_abae,NA,NA,NA,Bonner_2013_amgc,NA,41,2,1,NA,NA
287,Bukit Soeharto,NA,NA,NA,NAC,East Kalimantan,Indonesia,-0.866,117.05,20,NA,25.3,NAC,NAC,2015,NA,loam,NAC,NAC,NAC,Ultisol,NA,NAC,NA,112,Asia,Af,Tropical rainforest,154,Hirata_2008_sdoc,NA,Asiaflux,NA,NA,NA,0,0,NA,NA,NA
288,Caballos,NA,NA,NA,NAC,San Jose,Costa Rica,9.8446,-84.5281,132,NA,27.1,NAC,NAC,2900,NA,NAC,NAC,NAC,NAC,Alfisol,NA,NAC,NA,113,North America,Am,Tropical moist forest,1272,Cifuentes-Jara_2008_abae,NA,NA,NA,Bonner_2013_amgc,NA,0,0,NA,NA,NA
289,Cajunuma,NA,NA,NA,NAC,Loja,Ecuador,-4.12,-79.18,3060,NA,9.4,NAC,NAC,4500,NA,loam,NAC,NAC,NAC,Alfisol,NA,NAC,NA,114,South America,Cfb,Tropical mountain system,445,Luyssaert_2007_cbob; Moser_2011_eeot,Moser_2011_eeot,NA,NA,Luyssaert_2007_cbob_v3.3,NA,0,0,NA,NA,NA
290,Caledon State Park,NA,NA,NA,NAC,Virginia,United States of America,38.329529,-77.14784,NAC,NA,NAC,NAC,NAC,NAC,NA,NAC,NAC,NAC,NAC,NAC,NA,NA,NA,115,North America,Cfa,Subtropical humid forest,NA,McGarvey_2015_csio,NA,NA,NA,NA,Maria,0,0,NA,NA,NA
291,Caliente,NA,NA,NA,NAC,Puntarenas,Costa Rica,8.4053,-83.3372,74,NA,27,NAC,NAC,4300,NA,NAC,NAC,NAC,NAC,Ultisol,NA,NAC,NA,116,North America,Af,Tropical rainforest,1302,Cifuentes-Jara_2008_abae,NA,NA,NA,Bonner_2013_amgc,NA,0,0,NA,NA,NA
292,CAM-01_Campo Ma'an 1,NA,NA,NA,NAC,South Region,Cameroon,2.36,9.93,100,NA,25.1,NAC,NAC,2588,NA,NAC,NAC,NAC,NAC,NAC,NA,NAC,NA,117,Africa,Af,Tropical rainforest,195,Lewis_2009_icsi,NA,NA,NA,Lewis2009; Liu_2014_htpa,NA,0,0,NA,NA,NA
293,CAM-02_Campo Ma'an 2,NA,NA,NA,NAC,"Litoral, Equatorial Guinea???",Cameroon,2.19,9.92,100,NA,25,NAC,NAC,2434,NA,NAC,NAC,NAC,NAC,NAC,NA,NAC,NA,117,Africa,Af,Tropical rainforest,194,Lewis_2009_icsi,NA,NA,NA,Lewis2009; Liu_2014_htpa,NA,0,0,NA,NA,NA
294,CAM-03_Campo Ma'an 3,NA,NA,NA,NAC,South Region,Cameroon,2.42,9.9,100,NA,25,NAC,NAC,2625,NA,NAC,NAC,NAC,NAC,NAC,NA,NAC,NA,117,Africa,Af,Tropical rainforest,196,Lewis_2009_icsi,NA,NA,NA,Lewis2009; Liu_2014_htpa,NA,0,0,NA,NA,NA
295,Cambronero,NA,NA,NA,NAC,Alajuela,Costa Rica,10.2989,-84.7665,1200,NA,20.1,NAC,NAC,5300,NA,NAC,NAC,NAC,NAC,Andisol,NA,NAC,NA,32,North America,Aw,Tropical mountain system,1310,Cifuentes-Jara_2008_abae,NA,NA,NA,Bonner_2013_amgc,NA,0,0,NA,NA,NA
296,Camp Borden,NA,NA,NA,NAC,Ontario,Canada,44.316667,-79.93333,120,NA,6.4,NAC,NAC,858,NA,sandy loam,NAC,NAC,NAC,NAC,NA,NA,NA,118,North America,Dfb,Temperate continental forest,NA,Barr_2002_ctcb; Lee_1999_loot; Teklemariam_2009_eyoc,Barr_2002_ctcb; Teklemariam_2009_eyoc,NA,1,Luyssaert_2007_cbob,Maria,0,0,NA,NA,NA
297,Canada - Atlantic Maritime,NA,NA,NA,NAC,New Brunswick,Canada,46,-66,NAC,NA,5,NAC,NAC,1200,NA,NAC,NAC,NAC,NAC,NAC,NA,NA,NA,119,North America,Dfb,Temperate continental forest,NA,Shaw_2005_aecd,NA,Keith_2009_rofb; Liu_2014_htpa,NA,Keith_2009_rofb; Liu_2014_htpa,Maria,0,0,NA,NA,NA
298,Canada - Boreal Plains,NA,NA,NA,NAC,Alberta,Canada,54,-115,NAC,NA,0,NAC,NAC,462,NA,NAC,NAC,NAC,NAC,NAC,NA,NA,NA,120,North America,Dfc,Boreal coniferous forest,NA,Shaw_2005_aecd,NA,Keith_2009_rofb; Liu_2014_htpa,NA,Keith_2009_rofb; Liu_2014_htpa,Maria,0,0,NA,NA,NA
299,Canada - Eastern Boreal Shield,NA,NA,NA,NAC,Ontario,Canada,51,-82,NAC,NA,5.5,NAC,NAC,1000,NA,NAC,NAC,NAC,NAC,NAC,NA,NA,NA,121,North America,Dfc,Boreal tundra woodland,NA,Shaw_2005_aecd,NA,Keith_2009_rofb; Liu_2014_htpa,NA,Keith_2009_rofb; Liu_2014_htpa,Maria,0,0,NA,NA,NA
300,Canada - Hudson Plains,NA,NA,NA,NAC,Manitoba,Canada,56,-94,NAC,NA,-3,NAC,NAC,600,NA,NAC,NAC,NAC,NAC,NAC,NA,NA,NA,122,North America,Dfc,Boreal coniferous forest,NA,Shaw_2005_aecd,NA,Keith_2009_rofb; Liu_2014_htpa,NA,Keith_2009_rofb; Liu_2014_htpa,Maria,0,0,NA,NA,NA
301,Canada - Mixedwood Plains,NA,NA,NA,NAC,Ontario,Canada,45,-77,NAC,NA,6.5,NAC,NAC,860,NA,NAC,NAC,NAC,NAC,NAC,NA,NA,NA,123,North America,Dfb,Temperate continental forest,NA,Shaw_2005_aecd,NA,Keith_2009_rofb; Liu_2014_htpa,NA,Keith_2009_rofb; Liu_2014_htpa,Maria,0,0,NA,NA,NA
302,Canada - Montane Cordillera,NA,NA,NA,NAC,British Columbia,Canada,52,-118,NAC,NA,4,NAC,NAC,1000,NA,NAC,NAC,NAC,NAC,NAC,NA,NA,NA,124,North America,Dfc,Temperate mountain system,NA,Shaw_2005_aecd,NA,Keith_2009_rofb; Liu_2014_htpa,NA,Keith_2009_rofb; Liu_2014_htpa,Maria,0,0,NA,NA,NA
303,Canada - Pacific Maritime,NA,NA,NA,NAC,British Columbia,Canada,51,-125,NAC,NA,6.7,NAC,NAC,2250,NA,NAC,NAC,NAC,NAC,NAC,NA,NA,NA,125,North America,ET,Temperate mountain system,NA,Shaw_2005_aecd,NA,Keith_2009_rofb; Liu_2014_htpa,NA,Keith_2009_rofb; Liu_2014_htpa,Maria,0,0,NA,NA,NA
304,Canada - Taiga Plains,NA,NA,NA,NAC,Alberta,Canada,58,-118,NAC,NA,-5.5,NAC,NAC,350,NA,NAC,NAC,NAC,NAC,NAC,NA,NA,NA,126,North America,Dfc,Boreal tundra woodland,NA,Shaw_2005_aecd,NA,Keith_2009_rofb; Liu_2014_htpa,NA,Keith_2009_rofb; Liu_2014_htpa,Maria,0,0,NA,NA,NA
305,Canada - Western Boreal Shield,NA,NA,NA,NAC,Manitoba,Canada,51,-99,NAC,NA,-4,NAC,NAC,400,NA,NAC,NAC,NAC,NAC,NAC,NA,NA,NA,127,North America,Dfb,Temperate steppe,NA,Shaw_2005_aecd,NA,Keith_2009_rofb; Liu_2014_htpa,NA,Keith_2009_rofb; Liu_2014_htpa,Maria,0,0,NA,NA,NA
306,Canada - Western Taiga Shield,NA,NA,NA,NAC,Alberta,Canada,59,-110,NAC,NA,-4,NAC,NAC,350,NA,NAC,NAC,NAC,NAC,NAC,NA,NA,NA,128,North America,Dfc,Boreal coniferous forest,NA,Shaw_2005_aecd,NA,Keith_2009_rofb; Liu_2014_htpa,NA,Keith_2009_rofb; Liu_2014_htpa,Maria,0,0,NA,NA,NA
307,Canal Flats mesic 1,NA,NA,NA,NAC,British Columbia,Canada,50.1,-115.25,1340,NA,1.4,NAC,NAC,634,NA,clay loam,NAC,NAC,NAC,NAC,NA,NA,NA,129,North America,Dfc,Temperate mountain system,NA,Comeau_1999_nbfc,Comeau_1999_nbfc,NA,1,Luyssaert_2007_cbob,Maria,0,0,NA,NA,NA
308,Canal Flats mesic 2,NA,NA,NA,NAC,British Columbia,Canada,50.1,-115.25,1340,NA,1.4,NAC,NAC,634,NA,clay loam,NAC,NAC,NAC,NAC,NA,NA,NA,129,North America,Dfc,Temperate mountain system,NA,Comeau_1999_nbfc,Comeau_1999_nbfc,NA,1,Luyssaert_2007_cbob,Maria,0,0,NA,NA,NA
309,Canal Flats xeric 1,NA,NA,NA,NAC,British Columbia,Canada,50.1,-115.25,1340,NA,1.4,NAC,NAC,634,NA,clay loam,NAC,NAC,NAC,NAC,NA,NA,NA,129,North America,Dfc,Temperate mountain system,NA,Comeau_1999_nbfc,Comeau_1999_nbfc,NA,1,Luyssaert_2007_cbob,Maria,0,0,NA,NA,NA
310,Canal Flats xeric 2,NA,NA,NA,NAC,British Columbia,Canada,50.1,-115.25,1340,NA,1.4,NAC,NAC,634,NA,clay loam,NAC,NAC,NAC,NAC,NA,NA,NA,129,North America,Dfc,Temperate mountain system,NA,Comeau_1999_nbfc,Comeau_1999_nbfc,NA,1,Luyssaert_2007_cbob,Maria,0,0,NA,NA,NA
311,Cano,NA,NA,NA,NAC,Heredia,Costa Rica,10.4214,-84.1618,224,NA,24.3,NAC,NAC,3900,NA,NAC,NAC,NAC,NAC,Inceptisol,NA,NAC,NA,1,North America,Am,Tropical rainforest,1285,Cifuentes-Jara_2008_abae,NA,NA,NA,Bonner_2013_amgc,NA,1,1,1,NA,NA
312,Cano Rosalba 1,NA,NA,NA,NAC,Zulia,Venezuela,9.25,-72,60,NA,27.9,NAC,NAC,1324,Dry season length 6 mths,NAC,NAC,NAC,NAC,younger oxisol,NA,terra firma,NA,130,South America,Aw,Tropical rainforest,474,Malhi_2004_tacw; Veillon_1985_ecda,NA,Veillon (1985),NA,Malhi_2004_tacw,NA,0,0,NA,NA,NA
313,Cano Rosalba 2,NA,NA,NA,NAC,Zulia,Venezuela,9.25,-72,35,NA,28.03,NAC,NAC,1324,Dry season length 6 mths,NAC,NAC,NAC,NAC,Pleistocene alluvial,NA,terra firma,NA,130,South America,Aw,Tropical rainforest,475,Malhi_2004_tacw; Veillon_1985_ecda,NA,Veillon (1985),NA,Malhi_2004_tacw,NA,0,0,NA,NA,NA
314,Caopo,NA,NA,NA,Ruo'ergai,Sichuan/Gansu?,China,33.85,103.3,NAC,NA,2.4,NAC,NAC,757,NA,NAC,NAC,NAC,NAC,NAC,NA,NA,NA,54,Asia,Dwb,Temperate mountain system,NA,Luo_1996_ponp,NA,Liu_2014_htpa,NA,Liu_2014_htpa,Maria,0,0,NA,NA,NA
315,CAP-09_Cape Three Points 9,NA,NA,NA,NAC,Western Region,Ghana,4.85,-2.1,126,NA,26,NAC,NAC,1734,NA,NAC,NAC,NAC,NAC,NAC,NA,NAC,NA,131,Africa,Aw,Tropical rainforest,219,Lewis_2009_icsi,NA,NA,NA,Lewis2009; Liu_2014_htpa,NA,0,0,NA,NA,NA
316,CAP-10_Cape Three Points 10,NA,NA,NA,NAC,Western Region,Ghana,4.8,-2.05,68,NA,25.6,NAC,NAC,1678,NA,NAC,NAC,NAC,NAC,NAC,NA,NAC,NA,131,Africa,Aw,Tropical rainforest,218,Lewis_2009_icsi,NA,NA,NA,Lewis2009; Liu_2014_htpa,NA,0,0,NA,NA,NA
317,"Capitao Paco,Para 1",NA,NA,NA,NAC,Para,Brazil,-1.73,-47.2,NAC,NA,NAC,NAC,NAC,2471,rainfall seasonality index SR (%) = 0.49,NAC,NAC,NAC,NAC,Ferralsol,NA,NAC,NA,132,South America,Am,Tropical rainforest,1176,Dantas_1989_laln; Klinge_1977_flpa,NA,NA,NA,Chave_2010_rasp,NA,0,0,NA,NA,NA
318,"Capitao Paco,Para 2",NA,NA,NA,NAC,Para,Brazil,-1.73,-47.2,NAC,NA,NAC,NAC,NAC,2471,rainfall seasonality index SR (%) = 0.27,NAC,NAC,NAC,NAC,Ferralsol,NA,NAC,NA,132,South America,Am,Tropical rainforest,1177,Dantas_1989_laln; Klinge_1977_flpa,NA,NA,NA,Chave_2010_rasp,NA,0,0,NA,NA,NA
319,Caqueta,NA,NA,NA,NAC,Amazonas,Colombia,-0.53,-72.1,200,NA,26.88,NAC,NAC,3059,Dry season length 0.38 mths,NAC,NAC,NAC,NAC,ultisol,NA,terra firma,NA,133,South America,Af,Tropical rainforest,471,Malhi_2004_tacw,NA,NA,NA,Malhi_2004_tacw,NA,0,0,NA,NA,NA
320,Caqueta (Poorter),NA,NA,NA,NAC,Amazonas,Colombia,-0.417,-70.5,NAC,NA,NAC,NAC,NAC,3059,NA,NAC,NAC,NAC,NAC,NAC,NA,NAC,NA,134,South America,Af,Tropical rainforest,1353,Poorter_2015_decs,NA,NA,NA,NA,NA,0,0,NA,NA,NA
321,Carajas,NA,NA,NA,NAC,Para,Brazil,-6,-50.5,170,NA,25.64,NAC,NAC,1993,Dry season length 4.9 mths,NAC,NAC,NAC,NAC,younger oxisol,NA,terra firma,NA,135,South America,Am,Tropical rainforest,472,Malhi_2004_tacw,NA,NA,NA,Malhi_2004_tacw,NA,0,0,NA,NA,NA
322,Cardoso Island,NA,NA,NA,NAC,Sao Paulo,Brazil,-25.1,-48,NAC,NA,NAC,NAC,NAC,2225,rainfall seasonality index SR (%) = 0.27,NAC,NAC,NAC,NAC,NAC,NA,NA,NA,136,South America,Cfa,Tropical rainforest,NA,Chave_2010_rasp; Moraes_1999_laln,NA,NA,NA,Chave_2010_rasp,Maria,0,0,NA,NA,NA
323,Cardoso Island restinga,NA,NA,NA,NAC,Sao Paulo,Brazil,-25.1,-48,NAC,NA,NAC,NAC,NAC,2225,rainfall seasonality index SR (%) = 0.42,NAC,NAC,NAC,NAC,Arenosol,NA,NA,NA,136,South America,Cfa,Tropical rainforest,NA,Chave_2010_rasp; Moraes_1999_laln,NA,NA,NA,Chave_2010_rasp,Maria,0,0,NA,NA,NA
324,Cascada,NA,NA,NA,NAC,Heredia,Costa Rica,10.3948,-83.9868,92,NA,25.1,NAC,NAC,3900,NA,NAC,NAC,NAC,NAC,Inceptisol,NA,NAC,NA,1,North America,Af,Tropical rainforest,1290,Cifuentes-Jara_2008_abae,NA,NA,NA,Bonner_2013_amgc,NA,1,1,1,NA,NA
325,Cascade Head (1),NA,NA,NA,NAC,Oregon,United States of America,45.05,-123.97,240,NA,10.1,NAC,NAC,2510,NA,loam,NAC,NAC,NAC,NAC,NA,NA,NA,137,North America,Csb,Temperate mountain system,NA,Runyon_1994_elon,Runyon_1994_elon,Williams et al. 1997,1,Luyssaert_2007_cbob,Maria,82,1,NA,NA,NA
326,Cascade Head (1A),NA,NA,NA,NAC,Oregon,United States of America,45.05,-123.97,200,NA,10.1,NAC,NAC,2510,NA,loam,NAC,NAC,NAC,NAC,NA,NA,NA,137,North America,Csb,Temperate mountain system,NA,Runyon_1994_elon,Runyon_1994_elon,Williams et al. 1997,1,Luyssaert_2007_cbob,Maria,82,1,NA,NA,NA
327,Cascade Head 1,NA,NA,NA,NAC,Oregon,United States of America,45.1024,-123.8816,205,NA,NAC,NAC,NAC,NAC,NA,loam,NAC,NAC,NAC,NAC,NA,NA,NA,137,North America,Csb,Temperate mountain system,NA,Luyssaert_2007_cbob,Law_2004_dace,NA,1,Luyssaert_2007_cbob,Maria,82,1,NA,NA,NA
328,Cascade Head 10,NA,NA,NA,NAC,Oregon,United States of America,45.0679,-123.8882,255,NA,NAC,NAC,NAC,NAC,NA,loam,NAC,NAC,NAC,NAC,NA,NA,NA,137,North America,Csb,Temperate mountain system,NA,Luyssaert_2007_cbob,Law_2004_dace,NA,1,Luyssaert_2007_cbob,Maria,82,1,NA,NA,NA
329,Cascade Head 11,NA,NA,NA,NAC,Oregon,United States of America,45.0819,-123.9038,236,NA,NAC,NAC,NAC,NAC,NA,loam,NAC,NAC,NAC,NAC,NA,NA,NA,137,North America,Csb,Temperate mountain system,NA,Luyssaert_2007_cbob,Law_2004_dace,NA,1,Luyssaert_2007_cbob,Maria,82,1,NA,NA,NA
330,Cascade Head 12,NA,NA,NA,NAC,Oregon,United States of America,45.0445,-123.9007,261,NA,NAC,NAC,NAC,NAC,NA,loam,NAC,NAC,NAC,NAC,NA,NA,NA,137,North America,Csb,Temperate mountain system,NA,Luyssaert_2007_cbob,Law_2004_dace,NA,1,Luyssaert_2007_cbob,Maria,82,1,NA,NA,NA
331,Cascade Head 2,NA,NA,NA,NAC,Oregon,United States of America,45.0974,-123.8972,308,NA,NAC,NAC,NAC,NAC,NA,loam,NAC,NAC,NAC,NAC,NA,NA,NA,137,North America,Csb,Temperate mountain system,NA,Luyssaert_2007_cbob,Law_2004_dace,NA,1,Luyssaert_2007_cbob,Maria,82,1,NA,NA,NA
332,Cascade Head 3,NA,NA,NA,NAC,Oregon,United States of America,45.1122,-123.8841,122,NA,NAC,NAC,NAC,NAC,NA,loam,NAC,NAC,NAC,NAC,NA,NA,NA,137,North America,Csb,Temperate mountain system,NA,Luyssaert_2007_cbob,Law_2004_dace,NA,1,Luyssaert_2007_cbob,Maria,82,1,NA,NA,NA
333,Cascade Head 4,NA,NA,NA,NAC,Oregon,United States of America,45.1122,-123.8841,NI,NA,NAC,NAC,NAC,NAC,NA,loam,NAC,NAC,NAC,NAC,NA,NA,NA,137,North America,Csb,Temperate mountain system,NA,Luyssaert_2007_cbob,Law_2004_dace,NA,1,Luyssaert_2007_cbob,Maria,82,1,NA,NA,NA
334,Cascade Head 5,NA,NA,NA,NAC,Oregon,United States of America,45.1122,-123.8841,NI,NA,NAC,NAC,NAC,NAC,NA,loam,NAC,NAC,NAC,NAC,NA,NA,NA,137,North America,Csb,Temperate mountain system,NA,Luyssaert_2007_cbob,Law_2004_dace,NA,1,Luyssaert_2007_cbob,Maria,82,1,NA,NA,NA
335,Cascade Head 6,NA,NA,NA,NAC,Oregon,United States of America,45.0894,-123.8816,321,NA,NAC,NAC,NAC,NAC,NA,loam,NAC,NAC,NAC,NAC,NA,NA,NA,137,North America,Csb,Temperate mountain system,NA,Luyssaert_2007_cbob,Law_2004_dace,NA,1,Luyssaert_2007_cbob,Maria,82,1,NA,NA,NA
336,Cascade Head 7,NA,NA,NA,NAC,Oregon,United States of America,45.0894,-123.8807,298,NA,NAC,NAC,NAC,NAC,NA,loam,NAC,NAC,NAC,NAC,NA,NA,NA,137,North America,Csb,Temperate mountain system,NA,Luyssaert_2007_cbob,Law_2004_dace,NA,1,Luyssaert_2007_cbob,Maria,82,1,NA,NA,NA
337,Cascade Head 8,NA,NA,NA,NAC,Oregon,United States of America,45.0894,-123.8807,NI,NA,NAC,NAC,NAC,NAC,NA,loam,NAC,NAC,NAC,NAC,NA,NA,NA,137,North America,Csb,Temperate mountain system,NA,Luyssaert_2007_cbob,Law_2004_dace,NA,1,Luyssaert_2007_cbob,Maria,82,1,NA,NA,NA
338,Cascade Head 9,NA,NA,NA,NAC,Oregon,United States of America,45.0699,-123.8949,207,NA,NAC,NAC,NAC,NAC,NA,loam,NAC,NAC,NAC,NAC,NA,NA,NA,137,North America,Csb,Temperate mountain system,NA,Luyssaert_2007_cbob,Law_2004_dace,NA,1,Luyssaert_2007_cbob,Maria,82,1,NA,NA,NA
339,Castelporziano,FluxNet,NA,NA,NAC,Roma,Italy,41.705806,12.377306,68.253,NA,15.6,NAC,NAC,781,NA,clay loam/sandy?,NAC,NAC,NAC,NAC,NA,NA,NA,138,Europe,Csa,Subtropical dry forest,NA,Baldocchi_2010_otda; CarboEurope-IP_2006_cd; FLUXNET2015_2015_fic; Law_2002_ecoc; Tirone_2003_emfc; Valentini_2000_ratm; Yu_2014_hcdu,Baldocchi_2010_otda,CD Carbodata; Reichstein et al 2002; Fluxnet; gaia.agraria.unitus.it,1,Luyssaert_2007_cbob,Maria,0,0,NA,NA,NA
340,Casuarina equisetifolia plantation 5-year stand,NA,NA,NA,NAC,Uttar Pradesh,India,24.1,82.7,NAC,NA,24.64,14,38,1029,NA,sandy loam,NAC,NAC,NAC,NAC,pH acidic to neutral.,NA,NA,139,Asia,Cwa,Tropical dry forest,NA,Srivastava_1995_baep,NA,NA,NA,Anderson_2006_toba,NA,0,0,NA,NA,NA
341,Casuarina equisetifolia plantation 8-year stand,NA,NA,NA,NAC,Uttar Pradesh,India,24.1,82.7,NAC,NA,24.64,14,38,1029,NA,sandy loam,NAC,NAC,NAC,NAC,pH acidic to neutral.,NA,NA,139,Asia,Cwa,Tropical dry forest,NA,Srivastava_1995_baep,NA,NA,NA,Anderson_2006_toba,NA,0,0,NA,NA,NA
342,Caxiuana,NA,NA,Caxiuana,NAC,Para,Brazil,-1.72,-51.45,NI,NA,NAC,NAC,NAC,2500,NA,clay,NAC,NAC,NAC,NAC,NA,NAC,NA,140,South America,Af,Tropical rainforest,114,Carswell_2002_sica; Luyssaert_2007_cbob; Malhi_2009_caoc,Carswell_2002_sica,NA,NA,Luyssaert_2007_cbob,NA,84,1,supersite,NA,NA
343,Caxiuana 1 CAX-01,NA,NA,Caxiuana,NAC,Para,Brazil,-1.7,-51.53,15,NA,26.7,NAC,NAC,2220,Dry season length 3.97 mths,NAC,NAC,NAC,NAC,older oxisol,NA,terra firma,NA,140,South America,Am,Tropical rainforest,115,Baker_2004_ibia; Malhi_2004_tacw,NA,NA,NA,NA,NA,84,1,supersite,NA,NA
344,Caxiuana 2 CAX-02,NA,NA,Caxiuana,NAC,Para,Brazil,-1.7,-51.53,15,NA,26.7,NAC,NAC,2220,Dry season length 3.97 mths,NAC,NAC,NAC,NAC,older oxisol,NA,terra firma,NA,140,South America,Am,Tropical rainforest,116,Baker_2004_ibia; Malhi_2004_tacw,NA,NA,NA,NA,NA,84,1,supersite,NA,NA
345,Caxiuana Drought Control CAX-04,NA,NA,Caxiuana,NAC,Para,Brazil,-1.72,-51.46,47,NA,25.8,NAC,NAC,2311,NA,loamy sand,NAC,NAC,NAC,Vetic Acrisol,NA,NAC,NA,140,South America,Af,Tropical rainforest,463,Aragao_2009_aabn; da Costa_2014_eran,da Costa_2014_eran,NA,NA,NA,NA,84,1,supersite,NA,NA
346,Caxiuana Terra Preta CAX-08,NA,NA,Caxiuana,NAC,Para,Brazil,-1.72,-51.5,NAC,NA,26.89999962,NAC,NAC,2314,rainfall seasonality index SR (%) = 0.13,sandy clay loam,NAC,NAC,NAC,Inceptisol,Hortic Archaeo-Anthrosol,NAC,NA,140,South America,Am,Tropical rainforest,446,Aragao_2009_aabn; Chave_2010_rasp; Malhi_2011_taoe,Aragao_2009_aabn; Chave_2010_rasp,NA,NA,NA,NA,84,1,supersite,NA,NA
347,Caxiuana Tower CAX-06,NA,NA,Caxiuana,NAC,Para,Brazil,-1.74,-51.46,47,NA,25.8,NAC,NAC,2311,rainfall seasonality index SR (%) = 0.42,clay,NAC,NAC,NAC,Geric Acric Ferralsol,NA,NAC,NA,140,South America,Af,Tropical rainforest,464,Aragao_2009_aabn; Chave_2010_rasp; Doughty_2014_tpaa,Doughty_2014_tpaa; Chave_2010_rasp,NA,NA,NA,NA,84,1,supersite,NA,NA
348,Cedar Bridge fire tower Pine/Scrub Oak stand,NA,NA,NA,NAC,New Jersey,United States of America,39.8379,-74.3791,58,NA,NAC,0.3,23.8,1123,NA,NAC,NAC,NAC,NAC,NAC,NA,NA,NA,141,North America,Cfa,Temperate continental forest,NA,Clark_2010_iiif,Clark_2010_iiif,NA,NA,Baldocchi_2008_bott,Maria,0,0,NA,NA,NA
